stop_id,stop_code,stop_name,stop_lat,stop_lon
3,03,INSTALATORÓW,52.20054,20.94777
9,05,HYNKA,52.18973589,20.95895588
12,06,PKP RAKOWIEC,52.19722463,20.96302732
13,05,PKP RAKOWIEC,52.19715413,20.96303153
14,02,INSTALATORÓW-KAM,52.19841315,20.95761317
17,05,KRAKOWIAKÓW,52.18558498,20.95500957
28,01,ŁOPUSZAŃSKA,52.19666064,20.92996314
34,02,RYŻOWA,52.20019671,20.91452682
36,01,PŁUŻAŃSKA,52.2071032,20.92495994
46,04,DZIECI WARSZAWY,52.19256889,20.90710602
50,01,SPISAKA,52.18939352,20.88460812
51,01,KUŹNICY KOŁŁĄTAJOWSKIEJ,52.1889254,20.877188
56,02,DOJAZDOWA,52.19865639,20.91837242
63,01,PKP WŁOCHY,52.20526058,20.91564873
70,01,PAROWCOWA,52.21179183,20.91364036
73,01,WOJCIECHOWSKIEGO,52.19592669,20.87966181
75,01,PKP URSUS,52.19661648,20.88515549
84,03,ŁOPUSZAŃSKA,52.19543532,20.92971112
91,02,LEŻAJSKA,52.18885178,20.98085873
92,04,SASANKI,52.18405754,20.97772521
94,01,SASANKI,52.18267365,20.97830913
101,01,NIEMCEWICZA,52.22126563,20.98393235
106,01,LINDLEYA,52.22340977,20.9965087
108,04,SZCZĘŚLIWICKA,52.214961,20.96954081
111,03,SZCZĘŚLIWICKA,52.21284381,20.96735658
112,01,WAWELSKA,52.21684561,20.9818855
113,06,WAWELSKA,52.21687216,20.97986862
114,05,WAWELSKA,52.21595992,20.98282098
115,02,AL. WIELKOPOLSKI,52.21687592,20.99629178
116,01,AL. WIELKOPOLSKI,52.21651368,20.99542679
122,01,SZYSZKOWA,52.17196735,20.93959879
123,02,SZYSZKOWA,52.17081771,20.93782003
132,01,INSTYTUT LOTNICTWA,52.17872383,20.94692975
151,02,RASZYŃSKA,52.21980572,20.98985773
152,03,POMNIK LOTNIKA,52.21627,20.99134
157,02,BALEYA,52.19599585,20.98327803
160,03,RAKOWIEC,52.19819767,20.9848133
167,01,POMNIK LOTNIKA,52.2155618,20.98813713
170,01,RASZYŃSKA,52.21986067,20.98936433
171,02,SPISKA,52.22344875,20.98337432
179,06,DW. ZACHODNI,52.21826862,20.9650013
180,04,RONDO ZESŁAŃCÓW SYBERYJSKICH,52.21598104,20.96288118
187,01,PL. STARYNKIEWICZA,52.226023,20.994585
1,01,WŁOCHY-RATUSZ,52.19360306,20.96142475
4,01,INSTALATORÓW-KAM,52.19813945,20.95863154
10,06,HYNKA,52.19060767,20.9573153
16,02,KRAKOWIAKÓW,52.18529619,20.95346819
20,01,LEŻAJSKA,52.18854197,20.98022366
22,02,KOMITETU OBRONY ROBOTNIKÓW,52.18065705,20.97821654
23,01,OŚRODEK WOJSKOWY,52.17477265,20.97916597
25,02,ORZECHOWA,52.19214657,20.94900688
29,01,POPULARNA,52.20161394,20.93715912
33,01,DOJAZDOWA,52.19816211,20.92000965
39,04,WAŁOWICKA,52.20958385,20.91397492
41,01,WAGONOWNIA,52.21457503,20.93034492
44,01,PRZEPIÓRKI,52.20309467,20.90468487
45,01,URSUS-RATUSZ,52.20167518,20.89616974
52,01,PRAŻMOWSKA,52.19292115,20.87920216
55,04,RYŻOWA,52.19912216,20.91353312
61,02,RYBNICKA,52.20743,20.90585
64,03,PKP WŁOCHY,52.20719363,20.91601406
74,02,PKP URSUS,52.19745741,20.88740405
81,02,PŁUŻAŃSKA,52.20812062,20.92484341
97,01,KOMITETU OBRONY ROBOTNIKÓW,52.17899499,20.97816461
98,02,OŚRODEK WOJSKOWY,52.1752446,20.97948935
104,01,DRZEWIECKIEGO,52.18143801,20.97390918
117,01,BITWY WARSZAWSKIEJ 1920 R.,52.21152136,20.97726684
118,01,DICKENSA,52.2059551,20.97242354
119,02,KOROTYŃSKIEGO,52.20313407,20.96934638
137,02,BITWY WARSZAWSKIEJ 1920 R.,52.21048616,20.97571694
139,01,OCH-TEATR,52.21472335,20.97995995
155,02,PRUSZKOWSKA,52.20160175,20.98522743
156,02,RAKOWIEC,52.19899053,20.98434102
172,02,BIAŁOBRZESKA,52.22172447,20.97717785
176,02,DW. ZACHODNI,52.21805584,20.96585102
181,03,RONDO ZESŁAŃCÓW SYBERYJSKICH,52.21570053,20.96222192
185,02,ŚMIGŁOWCA,52.20961255,20.94835011
186,06,PL. STARYNKIEWICZA,52.22754662,20.99528437
188,02,PL. STARYNKIEWICZA,52.2261043,20.99358986
191,01,BANACHA,52.20991064,20.98039814
192,07,BANACHA,52.21039474,20.98447177
194,01,JASIELSKA,52.1983188,20.97940428
195,02,MOŁDAWSKA,52.20026916,20.97863724
197,02,WIŚLICKA,52.20489842,20.97625444
198,01,MOŁDAWSKA,52.20185444,20.97927933
5,02,RADAROWA,52.18876246,20.9629588
6,01,RADAROWA,52.18811646,20.96407703
7,01,HYNKA,52.19066453,20.95890758
8,02,HYNKA,52.18970814,20.957438
11,01,PKP RAKOWIEC,52.19799299,20.96546406
18,01,ASTRONAUTÓW,52.18456096,20.97496976
19,02,SASANKI,52.18407648,20.97922264
21,02,NOVOTEL,52.19092304,20.98156446
27,01,WKD RAKÓW,52.19435032,20.93608559
37,02,PKP WŁOCHY,52.20517192,20.91613755
43,01,SZUBERTA,52.20824864,20.90053901
48,02,PL. TYSIĄCLECIA,52.19328364,20.8923431
53,01,MALINOWA,52.19373358,20.88354062
54,03,RYŻOWA,52.19956384,20.91484945
57,01,ZAJEZDNIA KLESZCZOWA,52.19652214,20.92487554
58,02,URSUS-RATUSZ,52.20088871,20.89615653
60,02,SZUBERTA,52.20837616,20.89991763
66,05,PKP WŁOCHY,52.20615534,20.91275163
67,03,WAŁOWICKA,52.20989769,20.9146836
68,01,WAŁOWICKA,52.20874383,20.91392462
69,02,WAŁOWICKA,52.20860324,20.91427371
71,01,BEŁZY,52.19526228,20.87436022
72,02,BEŁZY,52.19514152,20.87293458
79,01,SYMPATYCZNA,52.20958205,20.92046344
80,02,SYMPATYCZNA,52.20972046,20.92013207
82,01,TECHNIKÓW,52.2043273,20.92338981
83,03,MIKOŁAJSKA,52.20344425,20.92609436
89,02,PRZEDPOLE,52.19344942,20.94208532
90,01,NOVOTEL,52.19071133,20.98099001
93,03,SASANKI,52.18297741,20.9799976
95,04,KOMITETU OBRONY ROBOTNIKÓW,52.18048131,20.97685266
96,03,KOMITETU OBRONY ROBOTNIKÓW,52.17916515,20.97945704
100,02,PKP SŁUŻEWIEC,52.1817029,20.98690026
103,02,OGRÓD DZIAŁKOWY IM. WARNEŃCZYKA,52.18466715,20.96002003
133,01,KOROTYŃSKIEGO,52.20093138,20.96752196
134,05,DICKENSA,52.20601875,20.97138463
138,05,BITWY WARSZAWSKIEJ 1920 R.,52.21058591,20.9775864
158,01,BALEYA,52.19562079,20.98266959
159,01,RAKOWIEC,52.19791737,20.98341329
161,01,PRUSZKOWSKA,52.2007884,20.9843907
162,04,PRUSZKOWSKA,52.2014826,20.98363453
163,01,UNIWERSYTET MEDYCZNY,52.2047729,20.98577326
166,02,POMNIK LOTNIKA,52.21694709,20.99031016
2,02,WŁOCHY-RATUSZ,52.19262784,20.96004528
15,01,KRAKOWIAKÓW,52.18494299,20.95366777
24,01,ORZECHOWA,52.19188117,20.94925715
26,01,PRZEDPOLE,52.19276761,20.94468808
30,01,PKP WKD AL. JEROZOLIMSKIE,52.20575968,20.94321605
31,02,MIKOŁAJSKA,52.20300306,20.92834597
35,02,TECHNIKÓW,52.20467335,20.92364856
38,03,SYMPATYCZNA,52.2103,20.91986
40,02,PAROWCOWA,52.21233,20.91389
47,02,SZANCERA,52.19570817,20.89783542
49,01,ADAMIECKIEGO,52.19364884,20.89580426
62,01,RYBNICKA,52.20754563,20.90487873
65,04,PKP WŁOCHY,52.20630765,20.91439296
76,02,LALKI,52.19769602,20.87879931
77,02,WOJCIECHOWSKIEGO,52.19586,20.87856
85,02,POPULARNA,52.20072421,20.93506204
86,04,POPULARNA,52.20167044,20.93473365
87,02,PKP WKD AL. JEROZOLIMSKIE,52.2057983,20.94274968
88,02,WKD RAKÓW,52.19452342,20.93610674
99,01,PKP SŁUŻEWIEC,52.18117862,20.98699118
102,01,OGRÓD DZIAŁKOWY IM. WARNEŃCZYKA,52.18422,20.96096
105,02,DRZEWIECKIEGO,52.18221323,20.97261331
120,02,INSTYTUT LOTNICTWA,52.18017308,20.94797245
136,06,BITWY WARSZAWSKIEJ 1920 R.,52.21157438,20.97554621
140,02,OCH-TEATR,52.21514631,20.97987392
154,02,UNIWERSYTET MEDYCZNY,52.20478,20.98633
175,01,DW. ZACHODNI,52.2181422,20.96706957
177,03,DW. ZACHODNI,52.21803732,20.96492562
184,01,ŚMIGŁOWCA,52.21041372,20.95029555
196,01,WIŚLICKA,52.20400776,20.97557053
204,07,SZCZĘŚLIWICE,52.20907781,20.96395324
205,01,SZCZĘŚLIWICE,52.2080801,20.96390527
214,03,GRZYMAŁY-SOKOŁOWSKIEGO,52.21850663,20.97414803
217,04,PL. UNII LUBELSKIEJ,52.21265649,21.0212014
230,02,ŁAGIEWNICKA,52.12842814,21.01827859
244,52,ŚW. BONIFACEGO,52.182658,21.055063
250,02,DOLINA SŁUŻEWIECKA,52.17592185,21.04462902
255,03,VOGLA,52.15984063,21.08898014
258,01,CZEKOLADOWA,52.13218284,21.10101438
260,03,PRZEKORNA,52.12416225,21.10274705
270,02,PL. BERNARDYŃSKI,52.19480226,21.0546795
193,02,SIEMIEŃSKIEGO,52.20229221,20.97393042
201,02,HALA KOPIŃSKA,52.21804274,20.97637204
210,04,OPACZEWSKA,52.21053536,20.96948786
223,18,METRO WILANOWSKA,52.17994308,21.02427517
233,02,JAGIELSKA,52.11532986,21.01859205
235,02,DĄBRÓWKA,52.10658251,21.01880905
243,52,CZARNOMORSKA,52.18574,21.05156
246,52,NAŁĘCZOWSKA,52.174861,21.063317
251,02,PATKOWSKIEGO,52.17289115,21.05457808
266,03,BARTYCKA,52.21176,21.04823
267,02,SIELCE,52.2078674,21.04854889
269,02,AL. WITOSA,52.19901764,21.05141909
273,01,GORASZEWSKA,52.1859683,21.06448501
284,01,KALORYCZNA,52.19870052,21.08129497
285,01,OGRODY DZIAŁKOWE BUDOWLANI II,52.19716652,21.08513285
288,01,STATKOWSKIEGO,52.19077307,21.08317937
293,01,IWICKA,52.20660341,21.04342582
295,01,BOBROWIECKA,52.2003234,21.04616032
301,02,WARNEŃSKA,52.18369641,21.04577036
303,01,NOSKOWSKIEGO,52.17251835,21.03903425
317,02,MODZELEWSKIEGO,52.18338536,21.01471113
320,02,TELEWIZJA POLSKA,52.18910071,21.01277101
322,01,KONDUKTORSKA,52.20095461,21.03134061
328,02,KOPCIŃSKIEGO,52.15858764,21.05508746
329,01,ŁOWICKA,52.20249953,21.0057256
332,03,METRO URSYNÓW,52.16195647,21.02635349
334,01,PIĘCIOLINII,52.15581943,21.02374098
338,01,URSYNÓW PŁD.,52.15392,21.03933
340,05,POLINEZYJSKA,52.15081057,21.04828249
341,03,MIKLASZEWSKIEGO,52.14819346,21.04315074
343,01,NATOLIN PŁN.,52.14681374,21.0546187
345,02,MIGDAŁOWA,52.14538473,21.05677397
346,01,EUROPEJSKA,52.1607448,21.09291941
352,01,GRABALÓWKI,52.15125998,21.13281353
355,02,MYSIADŁO,52.09855669,21.01904404
366,02,DOM ARTYSTÓW,52.08463778,21.07968939
379,02,SIEDLISKOWA,52.1762644,21.10712003
382,02,LOKAJSKIEGO,52.13972265,21.06877846
387,01,KIEPURY,52.13598045,21.07278643
409,02,ORZYCKA,52.17112507,21.00907763
410,01,BARTŁOMIEJA,52.16975185,21.00897199
414,01,MIŁOBĘDZKA,52.19652277,20.99354441
420,04,RACJONALIZACJI,52.186101,20.992908
173,01,GRZYMAŁY-SOKOŁOWSKIEGO,52.21995338,20.97186129
174,02,GRZYMAŁY-SOKOŁOWSKIEGO,52.22026502,20.97175612
182,05,RONDO ZESŁAŃCÓW SYBERYJSKICH,52.21680996,20.96321265
183,02,RONDO ZESŁAŃCÓW SYBERYJSKICH,52.2160878,20.95927855
189,01,SKOROCHÓD-MAJEWSKIEGO,52.20506648,20.97388389
190,02,BANACHA,52.20997679,20.98029272
200,04,GRZYMAŁY-SOKOŁOWSKIEGO,52.21953955,20.97200144
206,02,SZCZĘŚLIWICE,52.20797405,20.96382209
207,03,SZCZĘŚLIWICE,52.20788559,20.96375325
208,04,SZCZĘŚLIWICE,52.20779441,20.96366963
209,05,SZCZĘŚLIWICE,52.2076997,20.96360377
212,01,HALA KOPIŃSKA,52.21720377,20.97808221
215,06,GRZYMAŁY-SOKOŁOWSKIEGO,52.21852126,20.97289442
216,05,GRZYMAŁY-SOKOŁOWSKIEGO,52.21813015,20.9725938
220,02,PARK DRESZERA,52.19808789,21.02426074
222,02,KRÓLIKARNIA,52.19076,21.02475
224,02,WYŚCIGI,52.1668758,21.01810314
225,02,POLECZKI,52.15408,21.01796
226,02,GRABÓW,52.14798137,21.0178616
227,02,SÓJKI,52.14424283,21.0179175
228,02,ŻOŁNY,52.14045158,21.01816563
232,02,KAPELI,52.11824293,21.01852839
234,02,KARCZUNKOWSKA,52.11205566,21.0186689
236,01,TROMBITY,52.11028081,21.00608129
239,02,KOSTRZEWSKIEGO,52.197243,21.039575
242,52,MANGALIA,52.18838,21.04875
248,01,PODBIPIĘTY,52.17790437,21.02949437
252,02,OS. ARBUZOWA,52.17157333,21.06043842
254,08,WILANÓW,52.16718724,21.08480861
256,02,POWSINEK,52.15320478,21.09161259
259,01,ROSOCHATA,52.12697776,21.10340444
261,02,ANDRUTOWA,52.12314465,21.09854331
265,01,POWSIN-PARK KULTURY,52.11673033,21.0928899
268,02,CHEŁMSKA,52.20374937,21.04967691
271,03,GOŁKOWSKA,52.19297043,21.05762716
272,02,LIMANOWSKIEGO,52.1909241,21.05932485
274,02,SADYBA,52.18276412,21.06845763
286,01,AUGUSTÓWKA,52.19497262,21.08782202
297,02,JEZIORKO CZERNIAKOWSKIE,52.19196485,21.06778703
299,01,KLARYSEWSKA,52.18482028,21.06085977
309,01,WYCZÓŁKI,52.15825,21.00238
311,01,MADALIŃSKIEGO-SZPITAL,52.20426808,21.01584311
219,02,DWORKOWA,52.20611633,21.02289313
221,02,MALCZEWSKIEGO,52.19523714,21.02446817
229,02,BOGATKI,52.13290767,21.01818117
231,02,PELIKANÓW,52.12364987,21.01839406
249,01,DOMINIKAŃSKA,52.17691891,21.03590512
253,01,KRÓLOWEJ MARYSIEŃKI,52.16771465,21.0765451
257,02,PAŁACOWA,52.14756618,21.09328959
262,02,GĄSEK,52.12113452,21.09388482
276,02,ŁOWCZA,52.17553567,21.07758064
277,01,KOSIARZY,52.17086242,21.0819217
281,01,SIEKIERKOWSKA,52.20879214,21.07737454
292,01,STĘPIŃSKA,52.20666098,21.03697558
296,01,OS. BERNARDYŃSKA,52.19224289,21.06438163
298,01,SYPNIEWSKA,52.19058275,21.07571734
305,01,ARBUZOWA,52.16759449,21.04379183
308,02,ŁĄCZYNY,52.15675048,21.00263147
315,02,KSAWERÓW,52.18722729,21.01824471
326,03,TELIGI,52.15471935,21.05083989
331,04,METRO URSYNÓW,52.161971,21.02937894
336,01,METRO STOKŁOSY,52.15648653,21.03518525
339,01,MAGELLANA,52.15508708,21.04220674
347,02,VOGLA-MORYSIN,52.16128232,21.10079577
360,02,URZĄD MIASTA,52.0743008,21.02834453
362,01,PKP PIASECZNO,52.06528235,21.01909546
365,02,ZIELONA,52.07686986,21.04855952
368,01,SOBIESKIEGO,52.08848419,21.12145304
374,02,POLNA,52.09669768,21.1167013
375,01,MAŁCUŻYŃSKIEGO,52.13905749,21.05516947
377,02,ZAŚCIANKOWA,52.16708,21.108
380,01,ZAOLZIAŃSKA,52.16077283,21.02101645
390,02,ŚNIADECKICH,52.08488058,21.07544334
391,02,CHYLICZKI,52.08457915,21.0653503
396,02,ODYŃCA,52.19719961,21.01322656
397,02,POLSKIE RADIO,52.19366365,21.01486755
404,01,KONSTRUKTORSKA,52.18484309,21.00187701
405,01,DOMANIEWSKA,52.18270238,21.00194713
407,02,CYBERNETYKI,52.17626502,21.00271504
413,01,POSTĘPU,52.17886102,20.99838283
429,01,METRO NATOLIN,52.14001177,21.05860805
430,02,MIELCZARSKIEGO,52.13114645,21.06137629
431,01,RYBAŁTÓW,52.13167745,21.05593542
432,01,POŁUDNIOWA,52.09616463,21.12296217
275,03,WIERTNICZA,52.17957734,21.07257264
278,01,BUDEXPO,52.21273645,21.05934353
279,02,FIGOWA,52.21239701,21.06780467
280,02,ŁOSOSIOWA,52.21171443,21.07418154
283,02,ANTONIEWSKA,52.20036794,21.07790114
290,01,ZAWODZIE,52.18452144,21.08073825
291,01,SANTOCKA,52.18264531,21.07761707
294,01,ZAKRZEWSKA,52.20215599,21.04209643
302,02,WRÓBLA,52.17351286,21.03072308
304,02,NOWOURSYNOWSKA,52.17099,21.04186
306,01,SGGW-REKTORAT,52.16246497,21.04781839
307,01,TANGO,52.15396651,21.01187066
319,02,METRO WIERZBNO,52.18959714,21.01691635
325,03,STRZELECKIEGO,52.15718538,21.04620855
327,01,NUGAT,52.15581243,21.05189881
330,01,TAGORE'A,52.19532617,21.00822043
333,02,MEGASAM,52.15889276,21.02130349
335,01,DUNIKOWSKIEGO,52.15435,21.0319
344,01,SZOLC-ROGOZIŃSKIEGO,52.14991592,21.05326437
350,02,ZAWADY,52.15944788,21.11883621
356,01,ENERGETYCZNA,52.08736692,21.0192783
358,01,KUSOCIŃSKIEGO,52.07986891,21.02141692
363,02,ZALESIE DOLNE,52.05760853,21.00864892
367,01,PARK ZDROJOWY,52.08425626,21.11972476
370,02,KLARYSEW,52.10319038,21.1144123
378,02,JARA,52.17301197,21.10777787
381,02,BELGRADZKA,52.14300133,21.06574238
385,02,GRZEGORZEWSKIEJ,52.15320581,21.05558265
386,02,PŁASKOWICKIEJ,52.15001435,21.05923104
394,02,MADALIŃSKIEGO,52.20365106,21.01009549
398,01,JOLIOT-CURIE,52.19253394,21.01103763
399,02,STEFANA BATOREGO,52.21018503,21.0050538
401,05,KULSKIEGO,52.20194377,21.00252397
403,01,WOŁOSKA,52.19479737,21.00143716
406,06,RONDO UNII EUROPEJSKIEJ,52.17905483,21.0026017
408,02,GOTARDA,52.17220753,21.004566
412,01,INSTYTUT FIZYKI,52.17744119,21.0072489
416,01,INSTYTUT REUMATOLOGII,52.191005,20.99548
421,01,STOLBUD,52.18433567,20.99764571
447,02,BUKOWIŃSKA,52.18683353,21.02497196
457,02,METRO WILANOWSKA,52.181484,21.023139
461,01,AL. LOTNIKÓW,52.17230951,21.01951248
424,01,JADŹWINGÓW,52.17120939,21.0043615
428,01,METRO IMIELIN,52.1502028,21.04639549
441,04,DWORKOWA,52.20530318,21.02142291
442,01,DWORKOWA,52.20501425,21.02265571
456,08,METRO WILANOWSKA,52.18000631,21.02007056
462,01,WYŚCIGI,52.16432854,21.01705274
465,04,POLECZKI,52.15338136,21.01563091
467,01,POLECZKI,52.15195035,21.01732262
468,01,GRABÓW,52.14672,21.01745
469,01,SÓJKI,52.14308098,21.01754398
470,01,ŻOŁNY,52.13844711,21.01748697
474,01,KAPELI,52.1170865,21.01812136
476,01,KARCZUNKOWSKA,52.11068822,21.01828253
478,02,TROMBITY,52.11024736,21.00503109
484,01,DOLNA,52.202134,21.034965
501,02,KRÓLOWEJ MARYSIEŃKI,52.16840823,21.07462128
513,02,CZEKOLADOWA,52.13301236,21.100987
522,01,BARTYCKA,52.21208,21.04697
523,02,BARTYCKA,52.21231042,21.04731166
526,01,CHEŁMSKA,52.20145235,21.04976483
527,03,CHEŁMSKA,52.2022923,21.04847167
529,02,GOŁKOWSKA,52.19304914,21.05835714
531,01,LIMANOWSKIEGO,52.18955299,21.06049017
557,01,EC SIEKIERKI,52.19336838,21.0840058
562,02,ZAWODZIE,52.18382408,21.07949901
564,02,STĘPIŃSKA,52.206984,21.035327
566,02,ZAKRZEWSKA,52.2021794,21.04121682
568,02,OS. BERNARDYŃSKA,52.19256715,21.06249527
569,01,JEZIORKO CZERNIAKOWSKIE,52.19187985,21.06805368
581,01,NOWOURSYNOWSKA,52.16983489,21.03972014
587,02,MADALIŃSKIEGO-SZPITAL,52.2039259,21.01368181
591,01,KRASICKIEGO,52.19675508,21.02004344
592,02,KRASICKIEGO,52.19659921,21.01818844
597,01,MODZELEWSKIEGO,52.18292453,21.0140017
602,05,METRO WIERZBNO,52.18922366,21.01835095
603,06,METRO WIERZBNO,52.18915114,21.01617483
604,01,TELEWIZJA POLSKA,52.18900925,21.01280621
607,02,KONDUKTORSKA,52.20068999,21.02976268
616,02,STRZELECKIEGO,52.15716251,21.04385147
618,04,STRZELECKIEGO,52.15606,21.0428
629,04,DUNIKOWSKIEGO,52.15457445,21.02986078
640,02,POLINEZYJSKA,52.15153968,21.04708455
642,01,MIKLASZEWSKIEGO,52.14722,21.0428
466,03,POLECZKI,52.15241,21.01924
471,01,BOGATKI,52.1318761,21.01777287
473,01,PELIKANÓW,52.12251433,21.01802036
475,04,KARCZUNKOWSKA,52.11118228,21.01741315
481,01,SPACEROWA,52.20572,21.031851
491,03,ŚW. BONIFACEGO,52.18223375,21.05677543
496,02,PODBIPIĘTY,52.17868003,21.02665297
499,01,DOLINA SŁUŻEWIECKA,52.17455445,21.04376914
503,01,WILANÓW,52.16500815,21.08412421
508,03,WILANÓW,52.16771692,21.0838978
510,01,VOGLA,52.15878801,21.08734439
515,03,ROSOCHATA,52.12805337,21.10449044
516,01,PRZEKORNA,52.12486516,21.10235067
518,02,WAFLOWA,52.11909397,21.10230165
530,01,GOŁKOWSKA,52.19226598,21.05708307
534,03,GORASZEWSKA,52.18756722,21.06320327
535,01,SADYBA,52.18176227,21.06899928
537,05,SADYBA,52.18137,21.06898
543,01,ŁOWCZA,52.17436401,21.07829991
544,02,KOSIARZY,52.17226798,21.08095546
548,02,SIEKIERKOWSKA,52.20889454,21.07735138
551,01,ANTONIEWSKA,52.20061297,21.07736129
553,02,OGRODY DZIAŁKOWE BUDOWLANI II,52.19746802,21.08485964
571,02,KLARYSEWSKA,52.18462002,21.0602767
577,01,WRÓBLA,52.1734078,21.0295802
579,03,NOWOURSYNOWSKA,52.1693814,21.04121712
583,02,SGGW-REKTORAT,52.1637674,21.04687161
595,04,OS. DOMANIEWSKA,52.18355219,21.0191841
600,01,SMOLUCHOWSKIEGO,52.17927387,21.01394242
601,01,METRO WIERZBNO,52.188551,21.01722596
611,06,URSYNÓW PŁN.,52.16192472,21.03697647
613,03,URSYNÓW PŁN.,52.16047938,21.03646189
615,08,URSYNÓW PŁN.,52.16216493,21.03385421
620,02,TELIGI,52.1554187,21.04907498
623,02,TAGORE'A,52.19536927,21.00738177
626,01,MEGASAM,52.15808078,21.02121537
628,02,DUNIKOWSKIEGO,52.15313478,21.02974492
631,03,METRO STOKŁOSY,52.15574535,21.03510447
632,02,HERBSTA,52.15132505,21.02620426
636,04,URSYNÓW PŁD.,52.15430934,21.03785338
638,06,URSYNÓW PŁD.,52.153908,21.037503
645,02,BRACI WAGÓW,52.14371261,21.04817025
646,08,NATOLIN PŁN.,52.14632256,21.05345493
659,01,ZAWADY,52.15945773,21.11874076
666,04,LAMINA,52.08328521,21.0224156
684,01,MANDARYNKI,52.14463933,21.06385197
694,01,LOKAJSKIEGO,52.13879058,21.0694997
712,01,MADALIŃSKIEGO,52.20281,21.01019
723,06,WOŁOSKA,52.19581624,21.00087875
728,06,DOMANIEWSKA,52.18340185,21.00142852
731,02,RONDO UNII EUROPEJSKIEJ,52.17851527,21.00083576
733,01,GOTARDA,52.1712293,21.00579843
736,01,BEŁDAN,52.1741841,21.0135795
738,02,INSTYTUT FIZYKI,52.17805715,21.00621486
739,02,POSTĘPU,52.17971333,20.99546326
745,02,JADŹWINGÓW,52.17054775,21.0033535
746,03,BOKSERSKA,52.16938247,20.99821733
750,02,METRO SŁUŻEW,52.17347266,21.02536019
754,02,RYBAŁTÓW,52.1311772,21.056685
758,02,POŁUDNIOWA,52.09568459,21.12227712
779,16,DW. CENTRALNY,52.22956292,21.00530538
786,04,DW. CENTRALNY,52.22898986,21.0014102
788,02,EMILII PLATER,52.23317,21.00307
802,02,LITEWSKA,52.21606225,21.0202861
807,02,MARSZAŁKOWSKA,52.21809098,21.01970788
808,02,HOŻA,52.22669335,21.01385811
816,02,KRÓLEWSKA,52.23758079,21.0073208
817,04,PL. BANKOWY,52.24303234,21.00257305
819,01,CENTRUM,52.22907632,21.01190851
820,06,CENTRUM,52.2295892,21.00996218
821,04,CENTRUM,52.23142567,21.01099564
828,03,KRÓLEWSKA,52.23853103,21.00793604
831,02,PL. BANKOWY,52.24376141,21.00183924
838,03,MURANOWSKA,52.25342041,20.99678067
851,01,WSPÓLNA,52.22817443,21.01758458
855,02,PIĘKNA,52.22321971,21.02433773
868,01,PARK TRAUGUTTA,52.25871445,21.00339476
879,01,CZERNIAKOWSKA,52.23037692,21.03371252
881,04,PKP POWIŚLE,52.23468876,21.03026619
883,01,ŚNIEGOCKIEJ,52.22665639,21.033892
894,02,HALA MIROWSKA,52.23781432,20.99656163
896,02,RONDO ONZ,52.23447889,20.99796427
897,02,KOSZYKOWA,52.22299163,21.00598298
904,02,INFLANCKA,52.2539497,20.99457696
911,02,KRUCZA,52.23132706,21.01813305
912,02,WSPÓLNA,52.22683754,21.01847698
913,01,MOKOTOWSKA,52.22345819,21.01839308
921,04,PIĘKNA,52.2239953,21.02476605
930,01,NOWY ŚWIAT,52.23659987,21.01589641
931,02,UNIWERSYTET,52.23921015,21.01729981
937,02,ORDYNACKA,52.23583944,21.01833028
940,04,KONWIKTORSKA,52.25550393,21.00441003
944,02,SANGUSZKI,52.25510126,21.0119433
956,03,TOPIEL,52.23705668,21.02624089
959,04,KSIĄŻĘCA,52.23017279,21.02955332
960,02,ŚNIEGOCKIEJ,52.22539759,21.03445684
963,06,ROZBRAT,52.22193223,21.0366509
965,01,ROZBRAT,52.2222893,21.03761771
966,01,SZWOLEŻERÓW,52.2151739,21.04591001
968,01,ZARUSKIEGO,52.21871899,21.04554576
972,03,TORWAR,52.22410538,21.04361288
975,07,TORWAR,52.22298767,21.04330922
984,02,ANIELEWICZA,52.24782961,20.98860276
991,07,KINO FEMINA,52.24123395,20.99388396
994,02,AL. JANA PAWŁA II,52.23574643,20.99566294
995,05,RONDO ONZ,52.23340897,21.00008592
996,01,RONDO ONZ,52.23170971,20.9989979
998,02,NOWOWIEJSKA,52.22102929,21.00505265
1004,01,ZAJEZDNIA WOLA,52.23507466,20.97417063
1005,01,OKOPOWA,52.2371231,20.98095853
1017,01,NISKA,52.24326735,20.88434615
1018,01,FORTOWA,52.24691,20.88362
1025,01,GÓRALSKA,52.23964952,20.93690955
1026,02,METRO ULRYCHÓW,52.24053895,20.93001079
1031,02,MUZEUM POWSTANIA WARSZAWSKIEGO,52.23353415,20.98366735
1040,02,SIEMIATYCKA,52.22461305,20.89733788
1042,02,BATALIONÓW CHŁOPSKICH,52.23225993,20.8969407
1046,01,FORT BLIZNE,52.24591102,20.8975963
1051,01,HALA WOLA,52.22843487,20.91531772
1052,02,PL. KASZTELAŃSKI,52.23182884,20.91509288
1053,02,CZUMY,52.23723324,20.91399816
1055,01,PIASTÓW ŚLĄSKICH,52.2641208,20.92882865
1070,01,NISKA,52.24936678,20.97921204
1071,02,SIENNA,52.23070641,20.99332913
1073,01,MORY,52.21581957,20.86038572
1076,02,PARAFIALNA,52.22415,20.95826
1080,01,BROŻKA,52.24295386,20.94468726
1082,02,ZNANA,52.23392884,20.92805884
1083,01,STRĄKOWA,52.23206898,20.92582806
1092,01,JAWCZYCE,52.21527316,20.85140104
1093,01,BLIZNE ŁASZCZYŃSKIEGO,52.2402426,20.88614384
1103,01,PIRENEJSKA,52.2559152,20.91826839
1107,02,OKOPOWA,52.23685689,20.97931272
1108,05,OKOPOWA,52.23634643,20.98013787
1109,02,ZAJEZDNIA WOLA,52.23551126,20.97441162
1110,06,METRO PŁOCKA,52.23292858,20.9662819
1119,02,REDUTA WOLSKA,52.22615625,20.94139521
1121,06,REDUTA WOLSKA,52.2270613,20.94273623
1122,02,FORT WOLA,52.22309678,20.9284319
1126,08,CM. WOLSKI,52.22505243,20.93069639
1136,02,STAROSTWO,52.2110313,20.81627661
1146,03,METRO MŁYNÓW,52.23723663,20.95560703
1153,02,KONARSKIEGO,52.23963803,20.91694228
1161,03,MUZEUM POWSTANIA WARSZAWSKIEGO,52.23362749,20.98164642
1166,01,SIENNA,52.22974843,20.9937153
1170,02,RONDO DASZYŃSKIEGO,52.23017164,20.98244839
1174,01,SIEMIATYCKA,52.22350203,20.89706339
1176,01,BATALIONÓW CHŁOPSKICH,52.23106548,20.8966835
1178,01,OS. GÓRCZEWSKA,52.23892594,20.89624019
1187,02,FORT BLIZNE,52.24788022,20.89803552
1193,02,STARE BEMOWO,52.25879228,20.89849149
1205,02,PIASTÓW ŚLĄSKICH,52.26296128,20.92655498
1213,02,DALIBORA,52.24685165,20.94331431
1219,03,ORLICH GNIAZD,52.24839478,20.92135912
1222,01,CM. ŻYDOWSKI,52.24472251,20.97697666
1228,04,NOWOLIPIE,52.24395772,20.98688624
1232,02,ARMATNIA,52.22117,20.95968
1234,02,PUSTOLA,52.23392862,20.94098827
1237,02,ANTKA ROZPYLACZA,52.23418384,20.9338655
1241,02,BLIZNE ŁASZCZYŃSKIEGO,52.24053916,20.88395607
1248,01,PL. INWALIDÓW,52.26430641,20.99025193
1253,01,SZPITAL BIELAŃSKI,52.28741983,20.95218278
1255,01,CM. WŁOSKI,52.29832263,20.9418923
1256,02,PROZY,52.30176312,20.93927978
1257,01,MUZEALNA,52.30536722,20.93362741
1266,01,TYTUŁOWA,52.28305195,20.91545464
1267,01,CHABROWA,52.28375228,20.90270748
1283,01,PIASKI,52.2719028,20.94458129
1292,01,WIDOKOWA,52.30538276,20.88478931
1295,02,ROKOKOWA,52.28612988,20.91047064
643,02,MIKLASZEWSKIEGO,52.14827789,21.04169232
648,02,CYNAMONOWA,52.14771331,21.05629917
657,06,CISZEWSKIEGO,52.15859357,21.04987344
658,01,LERCHA,52.16210998,21.1144934
663,02,ENERGETYCZNA,52.08871139,21.01930115
665,03,LAMINA,52.08227485,21.02259812
667,02,SZKOLNA,52.07922784,21.02476422
673,02,PKP PIASECZNO,52.06592856,21.02027287
674,01,ZALESIE DOLNE,52.05677855,21.00816261
675,01,ZALESINEK,52.05181551,20.99873093
676,01,ZIELONA,52.07692973,21.04934852
678,02,PARK ZDROJOWY,52.08370996,21.11955731
680,01,CH STARA PAPIERNIA,52.09073712,21.12254948
681,01,KLARYSEW,52.10223264,21.11439259
682,01,IWICZNA,52.09165482,21.01877055
689,01,ZAŚCIANKOWA,52.16840106,21.10736902
692,01,BELGRADZKA,52.14182826,21.06645761
697,01,GRZEGORZEWSKIEJ,52.15227266,21.05652439
698,04,PŁASKOWICKIEJ,52.14883426,21.05857661
708,01,METRO POLE MOKOTOWSKIE,52.20870439,21.00748591
709,02,METRO POLE MOKOTOWSKIE,52.20840635,21.00811776
715,04,ODYŃCA,52.19591192,21.01251922
716,03,ODYŃCA,52.19612663,21.01472017
717,01,POLSKIE RADIO,52.19286781,21.01500294
727,02,DOMANIEWSKA,52.18404276,21.00245805
729,01,RONDO UNII EUROPEJSKIEJ,52.17786798,21.0038497
730,05,RONDO UNII EUROPEJSKIEJ,52.1767787,21.00218134
742,02,ZAJEZDNIA WORONICZA,52.18890773,20.99599614
743,01,MAKLAKIEWICZA,52.18876191,20.99374774
751,02,OGRODY DZIAŁKOWE WILANÓWKA,52.16288,21.10748
753,02,HOŁUBCOWA,52.15629676,20.99794189
756,02,ZARUBY,52.13181189,21.07043062
760,02,METRO IMIELIN,52.14944292,21.0446998
772,02,NOAKOWSKIEGO,52.22280874,21.0092421
773,01,NOAKOWSKIEGO,52.22282277,21.00769897
777,12,DW. CENTRALNY,52.23052,21.00459
783,05,DW. CENTRALNY,52.22700404,21.00208322
785,03,DW. CENTRALNY,52.22901429,21.00079263
787,01,EMILII PLATER,52.23294671,21.00268477
798,12,METRO POLITECHNIKA,52.21877788,21.01551745
800,05,METRO POLITECHNIKA,52.21874351,21.01526821
801,08,METRO POLITECHNIKA,52.21808774,21.0154835
803,01,MARSZAŁKOWSKA,52.21793097,21.02011202
804,02,PL. ZBAWICIELA,52.21872209,21.01872807
823,03,CENTRUM,52.23162142,21.01044623
825,04,METRO ŚWIĘTOKRZYSKA,52.23502667,21.00728373
829,01,KRÓLEWSKA,52.23865089,21.00584975
830,01,PL. BANKOWY,52.24309031,21.00210244
837,06,MURANOWSKA,52.25438893,20.99929847
839,02,MURANOWSKA,52.25376244,20.99715243
846,02,NALEWKI-MUZEUM,52.24882024,20.99435308
849,02,ZACHĘTA,52.23967363,21.01126671
852,03,MOKOTOWSKA,52.22418792,21.01960242
856,01,WIEJSKA,52.22425455,21.02881527
858,01,MUZEUM NARODOWE,52.23217821,21.02344481
861,01,UNIWERSYTET,52.24006879,21.01660795
862,01,HOTEL BRISTOL,52.24197982,21.01536108
863,01,STARE MIASTO,52.24677777,21.01556418
864,01,ORDYNACKA,52.23611191,21.01815345
869,02,MOST GDAŃSKI,52.26000516,21.00775636
870,01,SANGUSZKI,52.25485812,21.0115544
874,01,DOBRA,52.24362,21.02217
876,02,ZAJĘCZA,52.2386288,21.0279433
882,02,KSIĄŻĘCA,52.23076616,21.03044131
885,02,AGRYKOLA,52.21750182,21.0375628
888,01,LEGIA-STADION,52.22012977,21.04503596
891,03,NOWOLIPKI,52.24495938,20.99211405
895,01,AL. JANA PAWŁA II,52.23599722,20.99787335
907,02,PL. TEATRALNY,52.24409068,21.0088871
917,05,PL. NA ROZDROŻU,52.21952503,21.02660793
922,02,WIEJSKA,52.22447117,21.03048307
928,02,MUZEUM NARODOWE,52.23223127,21.02223502
932,02,HOTEL BRISTOL,52.24136,21.01592
934,02,PL. ZAMKOWY,52.24475723,21.01408019
936,02,KAPITULNA,52.24747939,21.0091179
941,03,PARK TRAUGUTTA,52.2584704,21.0025556
953,01,SOLEC,52.23218309,21.03701783
954,02,SOLEC,52.23187044,21.03639056
955,02,TOPIEL,52.23762667,21.0267714
958,01,KSIĄŻĘCA,52.22931052,21.03137712
976,02,METRO CENTRUM NAUKI KOPERNIK,52.24137648,21.03030006
433,01,HOŁUBCOWA,52.15599728,21.00009392
434,02,WĄWOZOWA,52.13395032,21.0750379
435,01,ZARUBY,52.13214698,21.07204264
438,01,RAKOWIECKA,52.209391,21.021103
443,02,MORSKIE OKO,52.20143696,21.02379201
446,01,MALCZEWSKIEGO,52.19396511,21.02405367
458,02,AL. LOTNIKÓW,52.17421139,21.020514
459,06,AL. LOTNIKÓW,52.17355108,21.01895877
464,03,WYŚCIGI,52.16765144,21.01365793
472,01,ŁAGIEWNICKA,52.12696105,21.01789676
482,04,DOLNA,52.20169085,21.03414944
485,51,KOSTRZEWSKIEGO,52.1965,21.04002
498,04,DOLINA SŁUŻEWIECKA,52.17563812,21.04296897
509,02,VOGLA,52.16035206,21.08667205
511,01,POWSINEK,52.15084708,21.09158997
514,02,ROSOCHATA,52.12828228,21.10386196
519,01,ANDRUTOWA,52.12311418,21.09837112
525,01,SIELCE,52.20583501,21.04855453
533,04,GORASZEWSKA,52.186141,21.06265239
536,07,SADYBA,52.18163958,21.06913112
538,06,SADYBA,52.18151,21.06883
542,01,WIERTNICZA,52.17840022,21.0729369
545,02,BUDEXPO,52.21312718,21.05767733
546,01,FIGOWA,52.21234351,21.06731274
547,01,ŁOSOSIOWA,52.21212649,21.07354123
550,02,ANANASOWA,52.20310146,21.07556561
552,02,KALORYCZNA,52.19891922,21.08083182
558,02,EC SIEKIERKI,52.19309242,21.08396774
567,02,BOBROWIECKA,52.20170578,21.04612791
574,02,STEGNY,52.17766139,21.04731217
582,02,ARBUZOWA,52.16778,21.04408
594,01,KSAWERÓW,52.18637,21.01847
598,03,MODZELEWSKIEGO,52.18348,21.01334
599,02,SMOLUCHOWSKIEGO,52.18037671,21.01420038
610,05,URSYNÓW PŁN.,52.16203111,21.03694353
614,07,URSYNÓW PŁN.,52.16226046,21.03420136
617,01,STRZELECKIEGO,52.15612,21.045
619,01,TELIGI,52.15436326,21.04920753
630,02,METRO STOKŁOSY,52.15571025,21.03375394
633,01,CENTRUM ONKOLOGII,52.15009925,21.03373325
634,04,CENTRUM ONKOLOGII,52.14997954,21.03181318
635,02,URSYNÓW PŁD.,52.15297969,21.03759006
637,05,URSYNÓW PŁD.,52.15414646,21.0370949
641,03,POLINEZYJSKA,52.15155,21.04849
644,02,STRYJEŃSKICH,52.1430262,21.04441457
647,04,CYNAMONOWA,52.14914286,21.05565519
650,01,MIGDAŁOWA,52.14433035,21.05748862
652,03,LANCIEGO,52.141305,21.060683
655,01,RUCZAJ,52.16127341,21.10491267
668,02,KUSOCIŃSKIEGO,52.07978642,21.02158974
671,01,URZĄD MIASTA,52.07312052,21.02716661
677,01,DOM ARTYSTÓW,52.08474148,21.07873864
679,02,SOBIESKIEGO,52.08901781,21.12170569
686,02,MAŁCUŻYŃSKIEGO,52.13893329,21.0544332
691,04,BELGRADZKA,52.14215547,21.06538966
693,04,LOKAJSKIEGO,52.13891892,21.06805266
695,01,MAŁEJ ŁĄKI,52.13451698,21.05296952
700,02,ROZJAZD OBORSKI,52.08977831,21.10835378
714,01,ODYŃCA,52.19558048,21.0136958
718,04,POLSKIE RADIO,52.19315886,21.01427951
722,02,WOŁOSKA,52.19628669,21.00219456
725,05,WORONICZA,52.18886284,21.00306036
732,01,CYBERNETYKI,52.17442645,21.00254523
734,01,ORZYCKA,52.17121349,21.00844495
737,02,BEŁDAN,52.17454665,21.0113264
747,05,BOKSERSKA,52.169757,20.996432
749,01,TABOROWA,52.16705427,20.99296363
752,06,RAKOWIECKA-SANKTUARIUM,52.20608,21.00023
755,01,MIELCZARSKIEGO,52.13123224,21.05936007
762,04,METRO STOKŁOSY,52.1568414,21.03360156
764,02,WIOLINOWA,52.1590243,21.03000697
765,02,CENTRUM ONKOLOGII,52.14897895,21.03172943
774,27,DW. CENTRALNY,52.22918277,21.00289724
778,11,DW. CENTRALNY,52.22998143,21.00441032
780,14,DW. CENTRALNY,52.22957174,21.00514
782,01,DW. CENTRALNY,52.22789,21.00375
795,02,METRO POLITECHNIKA,52.21726023,21.01380054
797,07,METRO POLITECHNIKA,52.2192495,21.01534335
815,02,METRO ŚWIĘTOKRZYSKA,52.23415713,21.00936503
824,03,METRO ŚWIĘTOKRZYSKA,52.23486946,21.00722184
826,01,METRO ŚWIĘTOKRZYSKA,52.23635192,21.00765582
827,04,KRÓLEWSKA,52.23802275,21.00577652
832,03,PL. BANKOWY,52.2431325,21.00216901
834,03,MURANÓW,52.24916051,20.99794691
836,05,MURANOWSKA,52.25327558,21.00025996
1296,02,WÓLCZYŃSKA-BOCZNICA,52.2867417,20.9044079
1297,02,OPŁOTEK,52.29256698,20.90255518
1308,01,DROHICKA,52.27600201,20.98283419
1313,04,LEKTYKARSKA,52.28361377,20.96617849
1315,02,MAGIERA,52.27143763,20.95069099
1318,02,PKP POWĄZKI,52.25613697,20.96929057
1325,01,CZARNIECKIEGO,52.27048622,20.99211518
1334,02,JANÓW,52.26410008,20.85637874
1336,01,RYNEK,52.25071138,20.84197531
1341,02,HŁASKI,52.27741636,20.97006311
1342,02,OS. POTOK,52.27901174,20.97715308
1344,02,RUDZKA,52.2798149,20.97364801
1345,02,ENERGETYCZNA,52.29297427,20.87712931
1350,07,PL. WILSONA,52.26832441,20.98629516
1352,01,PL. WILSONA,52.2691392,20.98456725
1354,03,PL. WILSONA,52.26971012,20.98545833
1372,03,METRO SŁODOWIEC,52.27535266,20.96206764
1373,02,METRO SŁODOWIEC,52.27585672,20.96350379
1386,01,PERZYŃSKIEGO,52.27629156,20.95304062
1390,02,ASPEKT,52.27869137,20.93309539
1392,05,BOGUSŁAWSKIEGO,52.28020353,20.92310864
1401,02,ESTRADY,52.29894909,20.88116361
1403,02,TRENÓW-LAS,52.30953866,20.88314225
1408,02,PIASKI,52.27165304,20.94583497
1412,03,CONRADA,52.27113951,20.93483441
1414,02,CHOMICZÓWKA,52.27349034,20.92457349
1416,05,CHOMICZÓWKA,52.27241172,20.92492977
1421,02,WIDOKOWA,52.30535856,20.88466049
1423,02,METRO STARE BIELANY,52.28160656,20.95021409
1427,04,SOKRATESA,52.28951682,20.93318174
1428,18,METRO MŁOCINY,52.29128616,20.92799513
1436,01,OPŁOTEK,52.29231365,20.90220574
1447,01,MARYMONT-POTOK,52.27453044,20.98153423
1450,02,TYLŻYCKA,52.28219111,20.98360426
1451,02,OS. RUDA,52.28565211,20.97854877
1454,04,OS. POTOK,52.2788372,20.97679469
1457,01,HŁASKI,52.27683853,20.9709719
1472,02,DŁUGA,52.32975641,20.88319923
1478,02,KOCHANOWSKIEGO,52.26856728,20.94569757
1486,03,ESTRADY,52.29938605,20.8825886
1498,01,KANAŁ ŻERAŃSKI,52.29924037,20.99347925
1500,04,PŁOCHOCIŃSKA,52.30829,20.98473
1501,04,EKSPRESOWA,52.31264903,20.97922816
1505,04,KLASYKÓW,52.3318008,20.96677951
982,04,STAWKI,52.25083956,20.98468927
983,04,ANIELEWICZA,52.24767481,20.98957708
987,02,NOWOLIPKI,52.24423788,20.99183684
997,01,KOSZYKOWA,52.22304959,21.00346607
1001,01,GUS,52.21628789,21.00498498
1002,02,GUS,52.21645841,21.00562896
1006,05,WOLA-RATUSZ,52.23915704,20.98754075
1014,02,DRZEWORYTNIKÓW,52.21705507,20.90151302
1016,01,INSTYTUT ENERGETYKI,52.21639962,20.87465489
1020,02,MONTE CASSINO,52.236095,20.947969
1021,02,MŁYNARSKA,52.23741093,20.97332971
1028,04,METRO BEMOWO,52.23983204,20.91330831
1032,01,ROGALIŃSKA,52.23135618,20.96992742
1033,05,NORBLIN,52.23149919,20.99267599
1037,01,PKP WOLA (KASPRZAKA),52.227852,20.958139
1041,01,CZŁUCHOWSKA,52.22688128,20.89685231
1044,03,OS. GÓRCZEWSKA,52.23941097,20.89757284
1045,01,NARWIK,52.241676,20.896571
1048,01,ARCHIMEDESA,52.25561783,20.89793856
1049,05,STARE BEMOWO,52.25834957,20.89842467
1050,01,SYNÓW PUŁKU,52.22466965,20.91636286
1063,03,KOŁO,52.24620092,20.93908206
1072,01,CHŁODNA,52.23675724,20.98938814
1077,01,ARMATNIA,52.22056,20.95955
1079,02,REDUTOWA,52.23635847,20.93994132
1087,01,ROZŁOGI,52.22789311,20.90178931
1089,01,GRENADY,52.24015747,20.96510324
1096,01,LATCHORZEW,52.24687366,20.8506554
1097,03,NOWOLIPIE,52.24348973,20.9878411
1099,02,MIŁA,52.24883614,20.9832303
1138,02,FORTOWA,52.24666273,20.8836413
1142,02,LESZNO,52.23804092,20.97706135
1143,04,MŁYNARSKA,52.23655,20.972223
1147,02,METRO MŁYNÓW,52.23826752,20.95400396
1151,03,METRO KSIĘCIA JANUSZA,52.23855129,20.94276899
1156,02,KLEMENSIEWICZA,52.23915049,20.90560125
1162,04,MENNICA,52.23522612,20.99048902
1163,03,MENNICA,52.23417957,20.99100311
1165,01,NORBLIN,52.23199462,20.9936236
1168,03,RONDO DASZYŃSKIEGO,52.22939371,20.98483269
1175,02,CZŁUCHOWSKA,52.22827023,20.89714351
1188,01,WAT,52.25152482,20.89842973
1198,01,CZUMY,52.23621022,20.9139665
1200,01,RADIOWA,52.25168771,20.9125087
1202,02,RADIOWA,52.25273819,20.9145095
1215,03,MARYNIN,52.24711168,20.92531096
1216,04,MARYNIN,52.24739166,20.92510394
1218,02,ORLICH GNIAZD,52.24936992,20.91990655
1220,01,RADIOWA-WAT,52.25506155,20.90585645
1223,02,NISKA,52.2491424,20.97975154
1224,02,POWĄZKOWSKA,52.25347254,20.979506
1226,04,SMOCZA,52.24642803,20.98558962
1227,02,SMOCZA,52.24575733,20.98568833
1229,02,NOWOLIPIE,52.24260533,20.98769772
1230,01,NOWOLIPIE,52.24205834,20.98801958
1231,01,PARAFIALNA,52.22291897,20.95809715
1239,02,RAGINISA,52.22845171,20.90634957
1249,01,TEATR KOMEDIA,52.27040523,20.97889195
1250,01,METRO MARYMONT,52.27170941,20.97191758
1251,04,METRO SŁODOWIEC,52.27568069,20.96083111
1258,02,PERZYŃSKIEGO,52.27633535,20.9541554
1260,02,PRZYBYSZEWSKIEGO,52.27761222,20.94255914
1261,03,ANDERSENA,52.27724078,20.93869302
1262,01,ASPEKT,52.27851349,20.9338942
1264,06,BOGUSŁAWSKIEGO,52.2806942,20.92377249
1265,02,POPIELA,52.28206903,20.92068909
1269,01,RADIOWO,52.2857881,20.88711046
1272,02,AKCENT,52.29571316,20.87862817
1276,02,KAMPINOSKA,52.31820334,20.88261131
1279,01,WŁOŚCIAŃSKA,52.26712625,20.96052029
1281,01,ROMASZEWSKIEGO,52.26955093,20.95305145
1293,03,METRO WAWRZYSZEW,52.285855,20.939955
1304,04,DZIERŻONIOWSKA,52.30870089,20.92529128
1307,06,MARYMONT-POTOK,52.2757228,20.98097286
1327,01,MŁOCIŃSKA,52.32110414,20.88404774
1329,01,DŁUGA,52.3288948,20.88230389
1331,01,WIOSENNA,52.33553548,20.88063035
1335,02,KWIRYNÓW,52.2589373,20.85216038
1348,18,PL. WILSONA,52.2693646,20.9863919
1358,02,CYTADELA,52.26540585,21.00381798
1368,02,TEATR KOMEDIA,52.27052045,20.97879498
1369,02,METRO MARYMONT,52.27213512,20.97159339
1370,07,METRO MARYMONT,52.27232773,20.973767
1376,05,PODLEŚNA-IMGW,52.2812309,20.95913466
1377,06,PODLEŚNA-IMGW,52.28154,20.96014
1380,05,PRZY AGORZE,52.29453308,20.94364003
1381,02,PRZY AGORZE,52.29572726,20.94473795
844,02,DZIKA,52.2527565,20.99026031
850,03,KRUCZA,52.23024704,21.01653792
854,02,PL. NA ROZDROŻU,52.21968186,21.02527286
859,01,FOKSAL,52.2323579,21.0200147
865,02,PL. KRASIŃSKICH,52.24912085,21.00542984
866,02,FRANCISZKAŃSKA,52.2521374,21.0017307
871,02,PODZAMCZE,52.24964951,21.01758371
875,02,BIBLIOTEKA UNIWERSYTECKA,52.24157409,21.02509711
877,02,JARACZA,52.23597104,21.03158354
884,04,ROZBRAT,52.22256957,21.0355938
887,02,ZARUSKIEGO,52.21876555,21.04590202
893,03,STAWKI,52.2511307,20.98633783
898,01,NOWOWIEJSKA,52.22128147,21.00464678
899,01,KOŹMIŃSKA,52.22515689,21.0362534
900,05,GUS,52.21716758,21.0063972
901,01,BIBLIOTEKA NARODOWA,52.212769,21.00601216
902,02,ŁAZIENKI KRÓLEWSKIE,52.21442113,21.02657919
903,01,DZIKA,52.25287525,20.99080589
909,04,KRUCZA,52.22921954,21.01726154
910,01,KRUCZA,52.23102695,21.01797906
914,02,MOKOTOWSKA,52.2237161,21.02116003
918,06,PL. NA ROZDROŻU,52.21964443,21.02603531
920,03,PIĘKNA,52.22381837,21.02333094
929,02,FOKSAL,52.2332656,21.01952801
933,01,PL. ZAMKOWY,52.24536,21.01382
935,02,STARE MIASTO,52.24676731,21.01483144
938,01,PL. KRASIŃSKICH,52.24884168,21.00566775
939,03,KONWIKTORSKA,52.25542353,21.00422649
942,02,PARK TRAUGUTTA,52.2588329,21.00186939
946,01,NOWY ZJAZD,52.24686,21.02042
947,02,MARIENSZTAT,52.24607736,21.01966577
950,01,BIBLIOTEKA UNIWERSYTECKA,52.24214889,21.02429747
952,01,JARACZA,52.23633648,21.03089044
957,03,PKP POWIŚLE,52.23413041,21.03026354
962,05,ROZBRAT,52.22177274,21.03671543
964,02,ROZBRAT,52.22239431,21.03709677
970,02,TORWAR,52.22435728,21.04366075
971,04,TORWAR,52.22510413,21.04373259
977,01,ŁAZIENKI KRÓLEWSKIE,52.21414278,21.02649898
981,02,STAWKI,52.25153138,20.98541232
986,04,NOWOLIPKI,52.24438562,20.99019146
1509,01,DĄBRÓWKA SZLACHECKA,52.34628283,20.94904185
1514,02,KORSAKA,52.25510815,21.04853154
1520,01,KSIĘŻNEJ ANNY,52.26090922,21.07593891
1523,02,ŁUBINOWA,52.26027475,21.09657291
1526,01,CHEMICZNA,52.2637247,21.06321258
1527,02,HUTNICZA,52.26618971,21.06932927
1528,01,RZECZNA,52.26733417,21.07183016
1529,01,BUKOWIECKA,52.2699069,21.07796205
1534,01,PIOTRA SKARGI,52.2665318,21.0583834
1535,02,GORZYKOWSKA,52.26952696,21.06129086
1541,01,CODZIENNA,52.29066436,21.0698069
1543,02,LEWINÓW,52.2863049,21.08955218
1544,02,KLAMROWA,52.28611996,21.09520631
1545,06,INŻYNIERSKA,52.25839298,21.0333401
1556,06,TORUŃSKA,52.29729712,21.02531621
1566,01,ZYNDRAMA Z MASZKOWIC,52.3271285,20.9911838
1567,01,INSUREKCJI,52.3415154,20.98842978
1568,02,PAROWOZOWA,52.3449283,20.98311034
1570,02,FLETNIOWA,52.33500199,20.97682212
1577,01,CZEREMCHOWA,52.33730572,20.96492192
1580,01,CHOSZCZÓWKA,52.35549919,20.98232843
1581,02,CHĘCIŃSKA,52.33288613,20.95886026
1582,01,TALAROWA,52.32617703,20.94948547
1589,01,WOŁODYJOWSKIEGO,52.255615,20.838812
1594,02,ZAPLECZE,52.31881107,21.01996031
1595,01,ZAKŁADY ZBOŻOWE,52.32074833,21.02360695
1602,02,GRABINA,52.36563048,21.02840445
1606,13,METRO TROCKA,52.27663775,21.05326075
1610,01,ŻUROMIŃSKA,52.28771396,21.04813777
1611,02,METRO KONDRATOWICZA,52.291943,21.049705
1614,10,METRO BRÓDNO,52.29379123,21.03260469
1617,02,ŁOJEWSKA,52.29666346,21.04246609
1620,02,CHODECKA,52.28887287,21.04092945
1624,01,ŚW. HIERONIMA,52.29229235,21.02191218
1627,02,KOPIJNIKÓW,52.30033832,21.03197953
1642,02,OKRĄGŁA,52.31809839,21.06709714
1643,01,ARENA LEGIONOWO,52.39957637,20.91639866
1644,02,BUCHNIK,52.36400958,20.93435738
1647,01,PAŁAC,52.37717642,20.91884515
1649,04,SOWIŃSKIEGO,52.39295565,20.93449437
1652,01,MEHOFFERA,52.32209254,20.94494352
1655,01,ZAJEZDNIA STALOWA,52.26336075,21.04836008
1658,01,OKNICKA,52.3224826,21.07862817
1660,02,POWSTAŃCÓW,52.27757488,21.11540035
1670,02,SIWIŃSKIEGO,52.391818,20.92330872
1673,01,SZKOLNA,52.31718719,21.10009192
1689,02,RYCERSKA,52.39702508,20.9184595
1696,04,PAŁAC,52.37855907,20.91752743
1698,02,PIASKOWA,52.367937,20.9310495
1700,02,DĄBRÓWKA SZLACHECKA,52.34773262,20.94846149
1702,02,ŻIŻKI,52.33871015,20.95745216
1703,02,HENRYKÓW,52.33559192,20.96111917
1706,01,STEFANIKA,52.32688725,20.94057238
1715,01,CHŁODNIA,52.2997745,21.011773
1717,02,MARKI-RATUSZ,52.32664323,21.10822599
1719,02,SZPITALNA,52.31248777,21.09656816
1721,01,ZDZIARSKA-KANAŁ,52.34021399,21.04873709
1725,03,GRODZISK,52.324199,21.067637
1745,02,DANUSI,52.31539666,21.02988271
1748,01,GRYFITÓW,52.30339876,21.02982971
1750,02,TURMONCKA,52.29881541,21.03296634
1754,03,METRO BRÓDNO,52.29351086,21.03136949
1760,03,ŁOJEWSKA,52.29616033,21.04139183
1763,06,BRÓDNO-PODGRODZIE,52.30014323,21.04176145
1765,08,BRÓDNO-PODGRODZIE,52.3000448,21.04136686
1767,02,ŻUROMIŃSKA,52.28873636,21.04844448
1770,01,ROLANDA,52.28236412,21.05333404
1771,02,CM. BRÓDNOWSKI,52.27875376,21.04481094
1772,12,METRO TROCKA,52.27676401,21.05285267
1774,09,METRO TROCKA,52.27667107,21.05278669
1780,01,KOŁOWA,52.27320407,21.04280697
1782,02,DKS TARGÓWEK,52.27341004,21.04635207
1783,02,ROGOWSKA,52.27105347,21.0419841
1786,02,PARK PRASKI,52.25280572,21.03026688
1788,01,WYBRZEŻE HELSKIE,52.26225428,21.0141469
1790,01,BARTNICZA,52.28525964,21.02240193
1795,06,PELCOWIZNA,52.29477204,21.01623461
1814,02,POLNYCH KWIATÓW,52.35001574,20.97814743
1816,01,ORCHOWIECKA,52.34288236,20.97252115
1819,01,OŁÓWKOWA,52.33867662,20.99246515
1820,04,OŁÓWKOWA,52.33929414,20.99205605
1831,03,PKP ŻERAŃ,52.3134481,21.00138173
1834,02,MARYWILSKA-LAS,52.30945579,21.00493613
1836,02,FABRYKA POMP,52.30394191,21.00915671
1382,01,WRZECIONO,52.29201,20.93774
1384,01,PROZY,52.30025278,20.93979654
1387,04,PERZYŃSKIEGO,52.27588622,20.95355574
1388,01,ANDERSENA,52.27773537,20.94029891
1391,01,CM. WAWRZYSZEWSKI,52.27993834,20.92861505
1395,02,CHABROWA,52.28377368,20.90429098
1396,02,KSIĘŻYCOWA,52.2843455,20.89750243
1410,01,AL. REYMONTA,52.27471901,20.93926336
1411,04,CONRADA,52.27115143,20.93294791
1413,02,CONRADA,52.27202665,20.93464114
1424,01,OCZAPOWSKIEGO,52.28383509,20.94441165
1426,01,SOKRATESA,52.28837381,20.93284329
1430,19,METRO MŁOCINY,52.2909886,20.92834928
1431,20,METRO MŁOCINY,52.2912,20.92786
1432,22,METRO MŁOCINY,52.29106708,20.9276986
1433,21,METRO MŁOCINY,52.29085235,20.92816728
1435,01,WÓLCZYŃSKA-BOCZNICA,52.28693623,20.90366376
1445,01,ŻUBROWA-UKSW,52.31116785,20.91596679
1446,01,BOHOMOLCA,52.27264645,20.98308049
1448,02,DROHICKA,52.27642,20.98353
1453,01,OS. POTOK,52.27876027,20.97726076
1460,01,KLAUDYNY,52.28572816,20.97184246
1461,02,PRZASNYSKA,52.2615842,20.96786908
1471,01,GRZYBOWA,52.32343701,20.88075984
1477,01,ŁĄKOWA,52.29033027,20.85725682
1492,01,PIMOT,52.26990406,21.01772864
1493,01,ŚLIWICE,52.27814569,21.0119719
1494,01,BUDZIŃSKIEJ-TYLICKIEJ,52.28207304,21.00961742
1497,01,EC ŻERAŃ,52.29534652,20.99747101
1507,01,ŻIŻKI,52.3374733,20.95826625
1512,01,KAWĘCZYŃSKA-BAZYLIKA,52.25827438,21.05923689
1522,01,ZABRANIECKA,52.26074741,21.08753776
1531,01,ELSNERÓW,52.27097602,21.09375273
1533,07,SZWEDZKA,52.2610204,21.0461479
1536,02,BIEŻUŃSKA,52.27334231,21.06443977
1538,01,KOŚCIELISKA,52.2795792,21.06907532
1539,01,TUŻYCKA,52.28286446,21.07178407
1549,02,DARWINA,52.26409441,21.03304975
1550,02,NAMYSŁOWSKA,52.26680908,21.0313055
1560,01,DANISZEWSKA,52.30673669,21.00689038
1563,01,OS. MARYWILSKA,52.31586113,20.99973066
1569,02,POLFA,52.31514963,20.98197243
1574,01,ŻYRARDOWSKA,52.34481578,20.99834343
990,01,KINO FEMINA,52.24211877,20.99468929
992,08,KINO FEMINA,52.24117537,20.99451908
1007,05,METRO PŁOCKA,52.23271275,20.96612214
1009,05,PKP WOLA (WOLSKA),52.23028148,20.95628585
1011,01,REDUTA WOLSKA,52.22606975,20.94331478
1012,04,CIEPŁOWNIA WOLA,52.22099088,20.91951147
1013,01,TKACZY,52.21860199,20.91060097
1019,01,LESZNO,52.23792889,20.97756543
1024,01,METRO MŁYNÓW,52.23770036,20.95742179
1027,01,KONARSKIEGO,52.23970481,20.91962909
1030,01,MENNICA,52.23509611,20.99309732
1035,01,KAROLKOWA,52.229325,20.979822
1036,02,SZPITAL WOLSKI,52.22882866,20.96836946
1039,02,STERNICZA,52.22140142,20.89756354
1043,02,SZOBERA,52.23696654,20.89670006
1054,02,KAZUBÓW,52.24281044,20.912633
1056,04,RADIOWA,52.25272143,20.91251577
1057,04,WROCŁAWSKA,52.25661154,20.92088222
1058,02,DŁUGOSZA,52.24056081,20.97073413
1060,02,MAGISTRACKA,52.24732866,20.95361734
1061,02,DEOTYMY,52.24707419,20.94798692
1067,02,ARKADYJSKA,52.25135444,20.88089192
1074,01,BRONISZE,52.21454,20.84078
1084,01,ORLICH GNIAZD,52.24928136,20.92154501
1086,01,RAGINISA,52.22836348,20.90815663
1088,02,RADIOWA-WAT,52.25521764,20.90598505
1091,02,ISKRY,52.25099744,20.86967022
1102,01,NOWE BEMOWO,52.26062583,20.92410876
1104,06,WOLA-RATUSZ,52.24036178,20.9867111
1125,06,CM. WOLSKI,52.22495395,20.93072487
1128,01,CIEPŁOWNIA WOLA,52.22038173,20.91816062
1129,06,CIEPŁOWNIA WOLA,52.21937863,20.91601012
1130,03,CIEPŁOWNIA WOLA,52.22128763,20.91699705
1131,02,TKACZY,52.21843917,20.90881713
1133,02,MORY,52.21589785,20.85832095
1134,02,JAWCZYCE,52.21535367,20.84899884
1137,02,NISKA,52.24381693,20.88335718
1144,04,PŁOCKA-SZPITAL,52.238,20.96554
1154,01,METRO BEMOWO,52.23915155,20.91498121
1159,01,MUZEUM POWSTANIA WARSZAWSKIEGO,52.23304305,20.98102804
1164,06,NORBLIN,52.2324425,20.99222501
1167,02,CHŁODNA,52.23757753,20.98895245
1177,01,SZOBERA,52.23518719,20.89647278
1179,02,OS. GÓRCZEWSKA,52.240533,20.896958
1195,02,HALA WOLA,52.22977576,20.91527318
1201,03,RADIOWA,52.25150545,20.91469978
1210,01,MAGISTRACKA,52.24727702,20.95282814
1211,01,DEOTYMY,52.2470048,20.94709797
1212,04,DALIBORA,52.2457707,20.942327
1217,02,DYWIZJONU 303,52.24834016,20.9112502
1221,02,GRENADY,52.24088,20.96507
1236,02,BROŻKA,52.24382,20.94432
1240,02,ROZŁOGI,52.22793941,20.90042685
1242,04,BLIZNE ŁASZCZYŃSKIEGO,52.24117557,20.88509689
1245,02,LATCHORZEW,52.24691033,20.85087152
1252,01,PODLEŚNA-IMGW,52.28045161,20.95876365
1254,01,PRZY AGORZE,52.29444272,20.94553478
1268,01,KSIĘŻYCOWA,52.28440687,20.89685195
1273,01,ESTRADY,52.29919248,20.88124809
1274,02,WÓLKA WĘGLOWA,52.30335075,20.88342687
1277,01,PL. GRUNWALDZKI,52.26365795,20.97872742
1280,02,PARK OLSZYNA,52.26823994,20.95846108
1284,06,AL. REYMONTA,52.27607744,20.93878841
1285,01,CONRADA,52.27049256,20.9333629
1287,01,KWITNĄCA,52.27529477,20.92310466
1288,01,TOŁSTOJA,52.28372618,20.92714174
1290,01,METRO STARE BIELANY,52.28073464,20.95117983
1291,02,OCZAPOWSKIEGO,52.28401919,20.94511003
1298,01,PALISADOWA,52.29471306,20.90495453
1301,01,DANKOWICKA,52.3090149,20.91110627
1309,01,BARSZCZEWSKA,52.27839246,20.98653203
1311,01,OS. RUDA,52.28488628,20.97911627
1312,02,MOST GROTA-ROWECKIEGO,52.28275853,20.99091946
1314,03,KLAUDYNY,52.28482495,20.97081508
1319,01,POWĄZKI-CM. WOJSKOWY,52.26034463,20.95793851
1322,01,CYTADELA,52.26500496,21.00362021
1323,02,CENTRUM OLIMPIJSKIE,52.27172228,20.99738145
1338,02,ŁĄKOWA,52.29105708,20.85608417
1340,01,GALLA ANONIMA,52.26914073,20.94301458
1346,01,MŁOCINY-UKSW,52.3128856,20.9171247
1349,09,PL. WILSONA,52.26839479,20.98597711
1351,08,PL. WILSONA,52.26794598,20.98726942
1353,04,PL. WILSONA,52.26986368,20.98574435
1355,01,SUZINA,52.26700914,20.97995497
1356,02,CZARNIECKIEGO,52.2701929,20.99061677
1357,01,CENTRUM OLIMPIJSKIE,52.2703776,20.99703346
1359,06,KS. POPIEŁUSZKI,52.26600628,20.97531553
1367,02,SADY ŻOLIBORSKIE,52.26498718,20.96990958
1371,06,METRO MARYMONT,52.2724414,20.97394517
1374,01,METRO SŁODOWIEC,52.27603677,20.96287034
1375,02,PODLEŚNA-IMGW,52.28073995,20.95880493
1378,02,AWF,52.28354606,20.95613872
1385,02,MUZEALNA,52.30634486,20.93249567
1394,02,TYTUŁOWA,52.2831819,20.91519868
1400,01,AKCENT,52.29533675,20.87812644
1404,01,KAMPINOSKA,52.31730995,20.88206478
1407,01,MAGIERA,52.27123,20.95041
1409,05,AL. REYMONTA,52.27500593,20.93762675
1415,06,CHOMICZÓWKA,52.27248309,20.9250578
1419,02,KWITNĄCA,52.27633808,20.92329516
1420,02,TOŁSTOJA,52.28519357,20.9291971
1422,01,PODCZASZYŃSKIEGO,52.27850032,20.95603397
1425,02,METRO WAWRZYSZEW,52.2873227,20.9377748
1429,17,METRO MŁOCINY,52.29109896,20.9284678
1444,02,DANKOWICKA,52.30943898,20.91160769
1455,03,OS. POTOK,52.27885424,20.97763709
1473,01,ENERGETYCZNA,52.29191413,20.8769697
1476,02,RYNEK,52.25067,20.84329
1479,02,GALLA ANONIMA,52.26993926,20.94019644
1480,01,ZAKAMAREK,52.13039,21.11599
1488,01,ZĄBKOWSKA,52.2513252,21.03845694
1496,02,ŻERAŃ FSO,52.29377018,20.99971153
1502,03,OBRAZKOWA,52.31576001,20.97311476
1503,01,BIAŁOŁĘKA-RATUSZ,52.32060986,20.9721205
1510,03,DW. WSCHODNI (KIJOWSKA),52.252881,21.05210131
1513,02,MARKOWSKA,52.25393502,21.04253585
1518,01,ZABRANIECKA-MAGAZYNY,52.26117618,21.06740614
1540,03,MŁODZIEŃCZA,52.28662196,21.07672936
1552,02,STANIEWICKA,52.27390326,21.03196706
1553,01,POŻAROWA,52.27768701,21.02784816
1554,01,REMBIELIŃSKA,52.28811204,21.02967468
1555,04,METRO BRÓDNO,52.293424,21.028459
1564,01,MARCELIN,52.31920779,20.99719717
1571,03,PKP PŁUDY,52.33505614,20.98637765
1573,01,WAŁUSZEWSKA,52.34417128,20.99532877
1575,01,AMBARAS,52.34087675,20.99968416
1576,01,BIAŁOŁĘKA DWORSKA,52.33623956,21.0042773
1579,01,POLNYCH KWIATÓW,52.34986828,20.97771053
1585,01,WIERUCHOWSKA,52.24888856,20.83506237
1586,01,ZIELONKI,52.25207428,20.81946842
1578,02,ORCHOWIECKA,52.3435769,20.97311455
1584,02,WIERUCHOWSKA,52.24851934,20.83638935
1587,01,MOŚCICKIEGO,52.26947618,20.81418626
1588,02,MOŚCICKIEGO,52.26898,20.81507
1590,02,WOŁODYJOWSKIEGO,52.25618832,20.83851235
1591,02,WARTKA,52.30995222,20.989893
1596,02,BRUSZEWSKA,52.32704491,21.02901996
1598,01,TOMASZEW,52.33869162,21.02888999
1600,01,KOBIAŁKA,52.35483427,21.02821404
1603,03,MYSZKOWSKA,52.270558,21.057262
1612,04,SZPITAL BRÓDNOWSKI,52.29295793,21.04184724
1613,02,PARK BRÓDNOWSKI,52.292769,21.03698
1615,02,ROLANDA,52.28384176,21.05224412
1618,02,KLUB LIRA,52.29630252,21.037626
1622,04,BAZYLIAŃSKA,52.29149838,21.01959707
1623,03,PKP TORUŃSKA,52.29385889,21.0127012
1631,01,DANUSI,52.31447281,21.02980562
1632,01,PRZYDROŻNA,52.31672,21.0295
1633,01,PRZYJAZNA,52.31845276,21.03244566
1635,02,DOBKA Z OLEŚNICY,52.32329987,21.0324406
1637,01,BRZEZINY,52.33481844,21.0333655
1638,02,ŁOKIETKA,52.27907586,21.06006849
1641,01,OS. LEWANDÓW I,52.31120965,21.06352026
1645,01,PIASKOWA,52.36925,20.92977
1650,02,3 MAJA,52.39577,20.92861304
1651,02,ERAZMA Z ZAKROCZYMIA,52.32489611,20.94755486
1657,02,WILKOWIECKA,52.34358799,21.02851448
1663,01,CMENTARZ,52.28114261,21.11222536
1667,01,LWOWSKA,52.403282356,20.913495854
1672,01,SZPITALNA,52.31164877,21.09552902
1674,01,MARKI-RATUSZ,52.32615038,21.10751503
1677,11,TARCHOMIN,52.31634108,20.95253718
1680,02,TARCHOMIN,52.3190615,20.95138034
1683,01,KS POLONEZ,52.29963526,21.03108171
1684,01,GAZOWNIA,52.36911292,21.02865761
1685,02,GAZOWNIA,52.37076872,21.02884487
1691,01,PARKOWA,52.40658173,20.91920877
1694,04,SOBIESKIEGO,52.38828441,20.92867132
1701,02,POETÓW,52.344206,20.951369
1708,03,MYŚLIBORSKA,52.31631988,20.96103303
1710,08,TARCHOMIN,52.31676861,20.95145751
1599,01,SZAMOCIN,52.3487281,21.02889224
1601,01,DŁUGORZECZNA,52.3620857,21.02776001
1604,02,HANDLOWA,52.27383327,21.05362482
1605,01,METRO TROCKA,52.27497681,21.05648565
1607,01,ROGOWSKA,52.27040569,21.04145693
1608,04,KOŁOWA,52.27357829,21.04400399
1609,01,CM. BRÓDNOWSKI,52.27815046,21.04407126
1636,01,WARZELNICZA,52.33015704,21.03214461
1640,04,CH TARGÓWEK,52.3020419,21.05908899
1654,02,PARKOWA,52.40716,20.91889
1661,01,SZWOLEŻERÓW,52.28413422,21.11005787
1675,02,PORAJÓW,52.31537977,20.96210557
1678,07,TARCHOMIN,52.31694095,20.9523665
1682,02,CHŁODNIA,52.300905,21.011504
1687,01,SIWIŃSKIEGO,52.39058028,20.92495086
1688,01,HUSARSKA,52.39341309,20.92106364
1693,01,3 MAJA,52.39597688,20.92795615
1695,01,SOBIESKIEGO,52.38775492,20.92857221
1704,01,HENRYKÓW,52.33416673,20.9621654
1709,02,MYŚLIBORSKA,52.3164832,20.95956213
1711,04,PORAJÓW,52.3146867,20.96136349
1727,02,OKNICKA,52.32251004,21.07932655
1729,02,PODWÓJNA,52.3124982,21.06561894
1733,01,WARSZAWSKA,52.28633528,21.10566757
1735,02,MEHOFFERA,52.32300537,20.94336276
1738,01,SAMARYTANKA,52.27983676,21.05674477
1749,01,KOPIJNIKÓW,52.30063983,21.03066427
1751,02,SUWALSKA,52.29612339,21.03298487
1753,06,METRO BRÓDNO,52.293026,21.033482
1757,03,SZPITAL BRÓDNOWSKI,52.292008,21.041442
1758,01,SZPITAL BRÓDNOWSKI,52.292663,21.040728
1759,01,ŁOJEWSKA,52.29550879,21.04215453
1762,05,BRÓDNO-PODGRODZIE,52.30024137,21.04174472
1764,07,BRÓDNO-PODGRODZIE,52.3003036,21.04280109
1781,02,KOŁOWA,52.27456637,21.04306871
1787,01,PARK PRASKI,52.25254767,21.02957626
1789,02,BARTNICZA,52.28663294,21.02190513
1796,01,PELCOWIZNA,52.29465055,21.01563636
1801,02,DŁUGORZECZNA,52.36305754,21.0279359
1812,01,WARTKA,52.30952191,20.9882335
1817,02,CZEREMCHOWA,52.33784419,20.96573745
1824,02,ŻYRARDOWSKA,52.34493477,20.99691945
1720,02,WOLNOŚCI,52.30394617,21.0894858
1731,02,CMENTARZ,52.28223143,21.11144526
1732,02,SZWOLEŻERÓW,52.28505138,21.10969059
1736,01,ERAZMA Z ZAKROCZYMIA,52.3241919,20.94633128
1739,01,ŁOKIETKA,52.2788375,21.0607193
1742,02,BIAŁOŁĘKA-KANAŁ,52.32625734,21.03173126
1761,04,BRÓDNO-PODGRODZIE,52.3003453,21.04174123
1766,01,METRO KONDRATOWICZA,52.29223232,21.04671473
1776,03,METRO TROCKA,52.2748598,21.05494593
1777,06,METRO TROCKA,52.2757052,21.05444052
1778,03,HANDLOWA,52.27307634,21.05413812
1779,01,HANDLOWA,52.27367546,21.05246655
1784,01,MYSZKOWSKA,52.26991887,21.05657808
1800,01,GRABINA,52.36470837,21.02809364
1802,02,KOBIAŁKA,52.35620185,21.02867018
1803,02,SZAMOCIN,52.3497135,21.0292157
1805,01,NOWINY,52.33286011,21.02994663
1810,02,STARE ŚWIDRY,52.31323587,20.96451992
1813,01,RACIBORSKA,52.35315119,20.98435358
1815,01,PARCELACYJNA,52.34660377,20.97543082
1821,02,AMBARAS,52.34050737,20.99961539
1823,02,WAŁUSZEWSKA,52.34305275,20.9945036
1825,01,PAROWOZOWA,52.34523487,20.98253445
1827,02,SMUGOWA,52.32529345,20.99277831
1829,02,OS. MARYWILSKA,52.31679198,20.99921329
1842,01,TORUŃSKA,52.29672787,21.0248558
1843,05,METRO BRÓDNO,52.293504,21.02638
1854,01,KONOPACKA,52.25946388,21.03932002
1858,01,DW. WILEŃSKI,52.25373877,21.03545428
1864,01,METRO SZWEDZKA,52.26254059,21.04448212
1867,02,PIOTRA SKARGI,52.26658667,21.05887982
1868,04,GORZYKOWSKA,52.26935442,21.05974783
1870,01,BIEŻUŃSKA,52.27232713,21.06316296
1876,04,MŁODZIEŃCZA,52.28774709,21.07619031
1880,03,LEWINÓW,52.28655544,21.08786909
1887,02,CHEMICZNA,52.26388674,21.06381578
1890,02,ZABRANIECKA-MAGAZYNY,52.26094419,21.06811257
1891,02,KSIĘŻNEJ ANNY,52.26061697,21.07758036
1904,07,DW. WSCHODNI (KIJOWSKA),52.2528473,21.05168853
1905,08,DW. WSCHODNI (KIJOWSKA),52.25312591,21.05187824
1927,01,ŻERAŃ FSO,52.28979742,21.00325895
1928,03,ŻERAŃ FSO,52.29067861,21.00277671
1929,04,ŻERAŃ FSO,52.29033057,21.00337877
1932,11,ŻERAŃ FSO,52.29132386,21.00075882
1933,12,ŻERAŃ FSO,52.29139614,21.00030055
1934,13,ŻERAŃ FSO,52.29148643,21.00023825
1935,02,KANAŁ ŻERAŃSKI,52.29958286,20.9935028
1937,01,PŁOCHOCIŃSKA,52.30724786,20.98392486
1938,02,PŁOCHOCIŃSKA,52.30880435,20.98274425
1942,01,OBRAZKOWA,52.3154763,20.97558734
1944,03,BIAŁOŁĘKA-RATUSZ,52.32058359,20.97069038
1945,02,DROGOWA,52.32778644,20.96803341
1950,02,BLISKA,52.24672071,21.05956229
1961,02,EDISONA,52.2298488,21.13679337
1966,01,BLISKA,52.24708449,21.05740767
1969,08,MIĘDZYBORSKA,52.2457755,21.07428224
1979,03,WIATRACZNA,52.24492745,21.08359091
1981,09,WIATRACZNA,52.24343642,21.08414331
1982,01,WSPÓLNA DROGA,52.24409899,21.09424205
1983,08,PL. SZEMBEKA,52.24363,21.10312
1984,01,GDECKA,52.2409,21.10116
1985,01,PL. SZEMBEKA,52.2426202,21.10118815
1986,02,PL. SZEMBEKA,52.24253175,21.10066756
1992,03,PŁOWIECKA,52.23350812,21.12545575
1995,03,TRAKT LUBELSKI,52.22791,21.14006
1996,02,TRAWIASTA,52.22601134,21.15509009
1997,02,WIERZCHOWSKIEGO,52.22535077,21.17491044
1999,01,WIERZCHOWSKIEGO,52.22549046,21.17480041
2012,01,BURSZTYNOWA-SZPITAL,52.20697766,21.18057862
2014,02,CENTRUM ZDROWIA DZIECKA,52.20739458,21.19324585
2015,01,CENTRUM ZDROWIA DZIECKA,52.20736531,21.19120534
2019,05,PKP MIĘDZYLESIE,52.20523761,21.16914835
2026,02,PKP ANIN,52.21460854,21.15812681
2033,02,MONTAŻOWA,52.19174428,21.18064632
2035,06,PKP RADOŚĆ,52.18379046,21.19031829
2036,01,WIELOWIEJSKA,52.17900292,21.19328875
2039,01,PRASOWA,52.16532116,21.20702678
2040,02,PRASOWA,52.16667779,21.20582668
2041,02,PKP MIEDZESZYN,52.1712287,21.20126534
2053,02,ODESKA,52.20078112,21.17164865
2054,04,BYSŁAWSKA,52.15572656,21.18355461
2056,02,PKP GOCŁAWEK,52.23897612,21.13251456
2058,01,REZEDOWA,52.23815,21.13885
2062,02,ŁYSAKOWSKA,52.23728757,21.14315344
2065,01,ŁYSAKOWSKA,52.23740371,21.14305969
2068,01,SPÓŁDZIELNIA NOMA,52.24104808,21.16131465
2070,01,MARYSIN,52.23978802,21.15507049
2076,02,MARSA-LAS,52.24778819,21.14319055
2079,01,SZYMAŃSKIEGO,52.24771854,21.1323769
2085,01,MEBLOWA,52.26924666,21.1197923
2088,02,MEBLOWA,52.26970627,21.11970208
2089,02,CIEPŁOWNIA KAWĘCZYN,52.26795134,21.12060362
2093,02,RONDO GRANZOWA,52.25986938,21.12664263
2096,02,SZYMAŃSKIEGO,52.24731919,21.13276064
2099,04,REKRUCKA,52.2447292,21.13861931
2105,02,PKP REMBERTÓW,52.25572414,21.15689847
2108,02,KORDIANA,52.25963149,21.15491814
2121,01,PRZEBIEG,52.25710938,21.16645895
2124,01,ZAWODOWA,52.26323364,21.15717532
2125,02,ZAWODOWA,52.26370442,21.15692415
2129,02,SZAFARZY,52.267837,21.15334
2132,01,LISTONOSZY,52.27459367,21.16227766
2133,01,PKP MOKRY ŁUG,52.27684828,21.17032053
2139,02,WAŁ MIEDZESZYŃSKI,52.22637929,21.05468954
2142,02,KANAŁ GOCŁAWSKI,52.23293981,21.07552721
2143,04,PRZYCZÓŁEK GROCHOWSKI,52.23472308,21.07841384
2158,03,ZAMIENIECKA,52.23517,21.09762
2159,04,ZAMIENIECKA,52.23619611,21.09836322
2167,02,ŁUKOWSKA,52.23800605,21.09951082
2168,01,ŁUKOWSKA,52.23863424,21.09976011
2169,02,TARNOWIECKA,52.23672039,21.1064195
2170,02,CH PROMENADA,52.23340569,21.10824882
2175,02,CHŁOPICKIEGO,52.24676263,21.10581597
2176,02,OSIEDLE MŁODYCH,52.24793181,21.09839136
2178,02,SZASERÓW-SZPITAL,52.25008226,21.08915522
2185,02,ŻUPNICZA,52.25078737,21.0603345
2202,01,PODSKARBIŃSKA,52.24948507,21.0743444
2211,01,ABRAHAMA,52.22590263,21.08461068
2212,01,ATEŃSKA,52.22482718,21.06701473
2220,03,STACJA KRWIODAWSTWA,52.23243355,21.06163944
2226,02,HORBACZEWSKIEGO,52.22428511,21.09673016
2232,02,ATEŃSKA,52.22436305,21.06574829
2245,01,CM. OFIAR WOJNY,52.23450704,21.15812363
2246,01,KLASZTORNA,52.25442598,21.16320424
2247,01,NIEDZIAŁKOWSKIEGO,52.25273286,21.16805078
2249,02,KOLARSKA,52.20241032,21.1710475
2254,01,RADOŚĆ-WODOCIĄG,52.19766632,21.17570954
2258,01,SZPITAL GROCHOWSKI,52.24268268,21.07889912
2265,02,PARK SKARYSZEWSKI,52.24045809,21.06332848
2275,06,KINOWA,52.24167614,21.07189777
2277,01,GRENADIERÓW,52.24363916,21.07848115
2285,01,WERSALSKA,52.22654208,21.05927729
2287,04,PL. PRZYMIERZA,52.23168786,21.05649321
2288,02,FRANCUSKA,52.23536423,21.05351954
2295,02,ZASOBNA,52.18349866,21.17193556
2300,01,JONTKA,52.18286872,21.20620977
2301,01,CZOŁGISTÓW,52.18262,21.21248
2306,01,KWITNĄCEJ AKACJI,52.18239293,21.21773298
2311,01,POWOJOWA,52.18417225,21.1830603
2312,01,ZASOBNA,52.18387583,21.171943
2317,01,MAJERANKOWA,52.17237061,21.18167916
2318,01,WIESIOŁKA,52.17203365,21.18697544
2319,01,NADARZYŃSKA,52.17130065,21.19370401
2322,02,KLIMONTOWSKA,52.21815105,21.13434935
2330,02,OŚRODEK SZKOLENIOWY,52.18667385,21.14290045
2332,02,WĘDKARSKA,52.17594489,21.15312615
2336,01,SKALNICOWA,52.18430877,21.13189271
2343,01,KADETÓW,52.21114579,21.10559473
2348,01,RZYMSKA,52.22201547,21.06392809
2350,02,ALGIERSKA,52.22151382,21.08010164
2360,01,CYKLAMENÓW,52.17869136,21.13951684
2362,01,WĘDKARSKA,52.17540942,21.15336438
2367,02,BORKÓW,52.19073092,21.14026218
2372,02,KOMBAJNISTÓW,52.20212078,21.13443107
2373,04,KOMBAJNISTÓW,52.20244568,21.13348455
2376,01,DZIELNICOWA,52.22160236,21.13748749
2378,01,WIĄZANA,52.19829901,21.14151796
2381,01,ŻONKILOWA,52.20300796,21.15896379
2382,02,MOTYLKOWA,52.20088389,21.14956689
2384,01,JAGIELLOŃSKA,52.24538273,21.17831883
2385,02,WSPÓLNA,52.24610008,21.18360628
2387,01,WSPÓLNA,52.24630071,21.18415064
2390,00,R11(K),52.196412,20.922925
2394,08,GUS,52.21729976,21.00359069
2409,02,RYBNA,52.15899287,20.94169337
2411,04,NA SKRAJU,52.16300721,20.93083174
2424,02,JANKI,52.13966,20.90215
2432,01,MIKLASZEWSKIEGO,52.12115495,20.97938994
2441,02,SPÓŁDZIELNIA,52.13654,20.97177
1826,02,ZYNDRAMA Z MASZKOWIC,52.32782599,20.9907931
1830,04,PKP ŻERAŃ,52.31361365,21.00229924
1837,01,FABRYKA POMP,52.30301082,21.00964554
1838,05,ODLEWNICZA,52.30563042,21.0171502
1845,02,REMBIELIŃSKA,52.28845808,21.03143486
1851,05,RONDO ŻABA,52.26930101,21.03635157
1855,01,INŻYNIERSKA,52.25842874,21.03452855
1866,01,SZWEDZKA,52.259866,21.046369
1873,04,JÓRSKIEGO,52.27716719,21.06632522
1875,02,TUŻYCKA,52.28445544,21.07353951
1877,02,MŁODZIEŃCZA,52.28738239,21.07485574
1878,01,MŁODZIEŃCZA,52.28633565,21.07469168
1881,01,KLAMROWA,52.28635674,21.09336424
1883,01,JESIOTROWA,52.2738097,21.08715657
1884,02,BUKOWIECKA,52.27067,21.08001
1897,01,MARKOWSKA,52.25457565,21.04486205
1899,01,ZAJEZDNIA PRAGA,52.25648773,21.05322949
1901,05,DW. WSCHODNI (KIJOWSKA),52.252538,21.05102785
1903,06,DW. WSCHODNI (KIJOWSKA),52.25295613,21.05203546
1908,11,DW. WSCHODNI (KIJOWSKA),52.2530249,21.05003266
1920,10,RONDO STARZYŃSKIEGO,52.26274526,21.02200256
1921,01,RONDO STARZYŃSKIEGO,52.26361485,21.01954673
1923,02,PIMOT,52.27082122,21.01714628
1925,02,BUDZIŃSKIEJ-TYLICKIEJ,52.28193852,21.01006054
1931,10,ŻERAŃ FSO,52.29122444,21.00081774
1939,02,EKSPRESOWA,52.31313642,20.97793005
1941,02,OBRAZKOWA,52.31714809,20.97530071
1946,02,KLASYKÓW,52.331974,20.965363
1947,01,KLASYKÓW,52.33080535,20.96576521
1949,02,LUBELSKA,52.247051,21.054689
1951,02,GOCŁAWSKA,52.24639814,21.06434015
1952,02,PRAGA-PŁD.-RATUSZ,52.246023,21.070226
1953,07,MIĘDZYBORSKA,52.24494743,21.07546421
1954,14,WIATRACZNA,52.24462581,21.08816446
1956,05,PL. SZEMBEKA,52.24296,21.10243
1963,03,AL. ZIELENIECKA,52.24778866,21.0482157
1964,02,AL. ZIELENIECKA,52.24686986,21.04757974
1967,01,GOCŁAWSKA,52.24673911,21.06245552
1968,01,PRAGA-PŁD.-RATUSZ,52.24632928,21.06890721
1977,01,WIATRACZNA,52.24554,21.082366
1980,10,WIATRACZNA,52.24330231,21.08458706
2443,02,PROMYKA,52.14653,20.94672
2444,01,RYBIE,52.14961994,20.93641198
2447,02,RYBIE,52.14959,20.93688
2457,01,PARLAMENTARNA,52.12744649,20.97974251
2470,01,WŁADYSŁAWA HERMANA,52.19524,20.86317
2475,04,KENIGA,52.19462471,20.86914613
2485,02,OGIŃSKIEGO,52.19293418,20.82891415
2486,02,LELEWELA,52.19128012,20.85449623
2488,01,DĄBROWSKIEGO,52.189395,20.8403228
2489,02,KINO BAŚŃ,52.18599763,20.84306055
2491,03,TRAUGUTTA,52.18386823,20.84008332
2495,03,STOCER,52.08065602,21.11380572
2499,02,TABITA,52.07809555,21.08951399
2508,02,PAŃSKA,52.07790771,21.07650836
2511,03,MIRKOWSKA,52.1010672,21.12545521
2519,04,KŁOBUCKA,52.15801577,20.99207307
2526,01,STRUGA,52.358492,21.13414
2529,02,PUSTELNIK,52.33976893,21.11902396
2530,02,WSPÓLNA,52.33492451,21.11489632
2543,01,KOSAĆCOWA,52.15647011,21.18740479
2548,03,PKP FALENICA,52.16152467,21.21204603
2549,04,PKP FALENICA,52.16131396,21.21328596
2550,05,PKP FALENICA,52.16176446,21.21065092
2551,01,ALEKSANDRÓW,52.16991681,21.24221346
2560,01,OLECKA,52.15427236,21.20921453
2564,01,OCHOCZA,52.15717084,21.21957893
2566,02,WASILKOWSKA,52.16003313,21.22340397
2576,01,TYSIĄCLECIA,52.10613202,21.23782088
2590,01,PARK MIEJSKI,52.09942871,21.26967195
2596,01,PODLEŚNA,52.13648805,21.19173747
2604,04,OKRZEI,52.10574315,21.24619943
2606,02,OLSZOWA,52.09964963,21.25842144
2611,02,LAWINOWA,52.17305994,21.20040969
2612,01,GRUNTOWA,52.16560789,21.20769141
2619,01,REJTANA,52.24668231,21.21355576
2620,03,WESOŁA-RATUSZ,52.24580973,21.22301405
2623,01,WIOSENNA,52.24985,21.23834
2624,01,WOLA GRZYBOWSKA,52.24963666,21.2429205
2626,02,PUSZKINA,52.24846382,21.25934838
2627,01,AL. PIŁSUDSKIEGO,52.24756129,21.26521764
2628,02,AL. PIŁSUDSKIEGO,52.24750363,21.26490729
1840,05,TORUŃSKA,52.29733429,21.02333258
1841,02,TORUŃSKA,52.29802117,21.02402251
1850,06,RONDO ŻABA,52.26952253,21.03681337
1852,01,NAMYSŁOWSKA,52.26681839,21.03003302
1861,02,DW. WILEŃSKI,52.25529827,21.03461093
1862,04,SZWEDZKA,52.26161623,21.04563891
1865,02,SZWEDZKA,52.2595251,21.046243
1869,01,GORZYKOWSKA,52.26859274,21.06008124
1871,03,BIEŻUŃSKA,52.27341206,21.06180763
1874,02,KOŚCIELISKA,52.28110692,21.07077322
1879,02,BOHUSZEWICZÓWNY,52.29215453,21.06060454
1885,02,RZECZNA,52.26813411,21.07405606
1886,01,HUTNICZA,52.2655351,21.06759164
1888,02,SIARCZANA,52.26139332,21.06624772
1895,01,ŚNIEŻNA,52.25974121,21.05278756
1898,01,WOJNICKA,52.25740734,21.05633643
1900,04,DW. WSCHODNI (KIJOWSKA),52.25276617,21.05175081
1902,13,DW. WSCHODNI (KIJOWSKA),52.25238711,21.05052565
1922,02,RONDO STARZYŃSKIEGO,52.26326422,21.0200625
1924,02,ŚLIWICE,52.27841841,21.01226025
1930,09,ŻERAŃ FSO,52.29113993,21.0009048
1936,02,KONWALIOWA,52.30419036,20.98868754
1940,01,EKSPRESOWA,52.31163443,20.97849232
1943,02,BIAŁOŁĘKA-RATUSZ,52.32185935,20.97179108
1948,04,AL. ZIELENIECKA,52.24738652,21.04845428
1957,02,ŻÓŁKIEWSKIEGO,52.24071912,21.10919648
1958,01,GOCŁAWEK,52.23788551,21.11906378
1960,01,ŚWIECKA,52.23283392,21.13042629
1962,02,TRAKT LUBELSKI,52.22816704,21.14065273
1965,01,AL. ZIELENIECKA,52.24771897,21.04692812
1976,23,WIATRACZNA,52.24472,21.08638
1978,08,WIATRACZNA,52.24586506,21.08459435
1987,01,ŻÓŁKIEWSKIEGO,52.24142494,21.10678527
1991,06,PŁOWIECKA,52.23470737,21.12561465
1993,01,EDISONA,52.2300325,21.1369722
2001,01,TRAWIASTA,52.22624342,21.15499603
2002,03,KAJKI,52.22700165,21.16101394
2003,02,KAJKI,52.22582922,21.16039684
2005,02,ODRODZENIA,52.22121735,21.16312493
2007,01,ALPEJSKA-INSTYTUT,52.21785259,21.16425209
2010,01,CZATÓW,52.20975893,21.17147318
2011,02,POŻARYSKIEGO,52.20607104,21.17571981
2013,02,BIELSZOWICKA,52.20679481,21.18583677
2630,02,ORLA,52.24899482,21.25474607
2634,02,CHODKIEWICZA,52.24999148,21.23352804
2636,01,WESOŁA-RATUSZ,52.24626431,21.22239899
2637,02,WESOŁA-RATUSZ,52.24667625,21.22330328
2639,02,GROSZÓWKA,52.24724995,21.20784957
2643,01,MIĘDZYLESIE,52.2082979,21.19662234
2644,02,MIĘDZYLESIE,52.20837255,21.19652824
2647,01,SZOSA LUBELSKA,52.222943,21.248541
2652,01,GWARNA,52.22187928,21.27677719
2653,01,RATAJA,52.22231922,21.26481905
2657,03,1. PRASKIEGO PUŁKU,52.22444235,21.22310716
2659,01,WAWERSKA,52.22440419,21.20601877
2662,02,PODGÓRNA,52.21983681,21.29657126
2668,01,NIZINNA,52.22325044,21.23832199
2669,02,FABRYCZNA,52.22332476,21.23168398
2672,02,OBJAZDOWA,52.22409238,21.21102258
2676,02,KIERBEDZIA,52.21103423,20.7760999
2684,01,SANKTUARIUM,52.21015719,20.80189693
2692,02,LATOSZKI,52.13156912,21.12737341
2693,02,ROSY,52.13172182,21.13464656
2697,01,3 MAJA,52.30322122,20.77746074
2700,01,SIERAKOWSKA,52.29438495,20.80471684
2706,01,HORNÓWEK,52.28710203,20.79829996
2709,02,POCZTOWA,52.29275033,20.84959787
2711,01,SIENKIEWICZA,52.29077614,20.82872177
2722,01,OGRODOWA,52.04007493,20.95448445
2731,02,GOŁĘBIA,52.08494389,20.82628757
2734,01,ROLNA,52.08165951,20.8315718
2736,01,KAJETANY,52.0924315,20.81424851
2741,02,LESZCZYNKA,52.04613532,20.86399244
2743,02,WYGODA,52.0575558,20.86842943
2747,02,SZCZAKI,52.01152335,20.89082105
2750,02,MROKÓW,52.03805189,20.86261596
2751,01,LESZCZYNKA,52.04772521,20.86495877
2754,01,MARYSIN,52.06793315,20.87285295
2755,01,RADIOSTACJA ŁAZY,52.07522878,20.87571574
2756,01,ŁAZY,52.08279618,20.87870778
2765,01,PKP HALINÓW,52.2223808,21.34791828
2773,02,PKP NIEPORĘT,52.42972005,21.03046632
2774,01,PORT NIEPORĘT,52.43403323,21.04146941
2776,01,AL. WOJSKA POLSKIEGO,52.44048308,21.04977075
1989,02,PŁOWIECKA,52.23293869,21.12891649
1990,01,PŁOWIECKA,52.23482677,21.12601237
2004,01,KAJKI,52.2260258,21.16035966
2006,01,ODRODZENIA,52.22160903,21.1628838
2009,02,CZATÓW,52.21040918,21.17012636
2020,01,PIECHURÓW,52.20950308,21.16304454
2022,01,SOLIDNA,52.21891571,21.15358333
2023,01,PKP WAWER,52.22252088,21.14943297
2027,02,PIECHURÓW,52.2103951,21.16232149
2029,01,PKP MIĘDZYLESIE,52.2051881,21.1673494
2034,01,POMOLOGICZNA,52.18601059,21.1864186
2043,02,WIELOWIEJSKA,52.17846676,21.1939967
2047,02,PKP RADOŚĆ,52.18356452,21.18895601
2049,04,PKP RADOŚĆ,52.18390825,21.18774539
2052,01,MONTAŻOWA,52.19104344,21.18119093
2057,02,OKULAROWA,52.24211165,21.13636322
2059,01,OKULAROWA,52.24138353,21.13467789
2060,04,OKULAROWA,52.24128,21.13616
2066,01,POTOCKICH,52.23833304,21.14760988
2067,02,MARYSIN,52.24001946,21.15686549
2072,03,MARYSIN,52.2403818,21.15599071
2074,02,SPÓŁDZIELNIA NOMA,52.24074603,21.16046048
2075,02,REKRUCKA,52.2442309,21.13916234
2077,02,POCISK,52.25305332,21.15231775
2080,02,ORACZY,52.25143331,21.12951859
2082,03,RONDO GRANZOWA,52.25891299,21.12827779
2083,02,GWARKÓW,52.26581238,21.12168613
2084,01,CIEPŁOWNIA KAWĘCZYN,52.26729865,21.12079275
2087,01,OGRODY DZIAŁKOWE KAWĘCZYN,52.27326413,21.11768927
2090,01,GWARKÓW,52.26485658,21.12207447
2091,06,RONDO GRANZOWA,52.25802,21.12703
2100,01,REKRUCKA,52.2435083,21.13761215
2102,01,POCISK,52.25275297,21.15155288
2104,06,PKP REMBERTÓW,52.25780875,21.15964475
2106,01,PKP REMBERTÓW,52.25537283,21.15567791
2109,02,ŻOŁNIERSKA,52.26030495,21.14480702
2110,01,STĘŻYCKA,52.26001054,21.14006034
2111,02,STRAŻACKA,52.25906653,21.13297878
2114,01,ŻOŁNIERSKA,52.26039327,21.1448438
2119,02,REMBERTÓW-KOLONIA,52.25687742,21.17716714
2122,02,ESKULAPÓW,52.26043376,21.16353256
2123,01,REMBERTÓW-AKADEMIA,52.26426062,21.16911632
2137,02,PADEREWSKIEGO,52.27023361,21.1505255
2141,02,MIĘDZYNARODOWA,52.22996988,21.0687127
2024,02,PKP WAWER,52.22328,21.14884
2030,02,PKP MIĘDZYLESIE,52.20425921,21.16828736
2032,01,ODESKA,52.20019227,21.17205946
2038,01,PKP MIEDZESZYN,52.17000304,21.2023472
2046,08,PKP RADOŚĆ,52.18545287,21.18802475
2048,01,PKP RADOŚĆ,52.18428571,21.18807897
2050,03,PKP RADOŚĆ,52.18400345,21.18712225
2051,02,POMOLOGICZNA,52.18689169,21.18569403
2055,02,BYSŁAWSKA,52.15586036,21.18116314
2063,02,POTOCKICH,52.23849601,21.14909707
2069,02,KORKOWA-CMENTARZ,52.24173298,21.16529425
2071,05,MARYSIN,52.23864989,21.15655404
2073,04,MARYSIN,52.24031055,21.15606622
2086,02,OGRODY DZIAŁKOWE KAWĘCZYN,52.27450785,21.11720622
2092,01,RONDO GRANZOWA,52.25962431,21.12656354
2097,01,RAFII,52.24456526,21.13413412
2098,02,FLORIANA,52.22592,21.14125
2103,05,PKP REMBERTÓW,52.25789142,21.15935798
2107,01,REMBERTÓW-RATUSZ,52.25889325,21.16102375
2112,01,STRAŻACKA,52.25887744,21.13153539
2116,02,REMBERTÓW-RATUSZ,52.25919462,21.16182395
2117,02,PRZEBIEG,52.25710092,21.16517386
2120,01,BUŁAWY,52.25699341,21.17196426
2130,02,DZIEWANOWSKA,52.27167333,21.15368332
2131,01,SZYSZAKÓW,52.27327544,21.15834457
2134,02,LISTONOSZY,52.27484849,21.16311033
2135,02,SZYSZAKÓW,52.27309947,21.15795009
2140,02,SASKA,52.22866885,21.06373295
2147,01,SASKA,52.22842051,21.06184332
2149,03,SASKA,52.22855358,21.06302602
2153,01,PRZYCZÓŁEK GROCHOWSKI,52.23566559,21.07845618
2157,05,ZAMIENIECKA,52.23427676,21.09718359
2163,01,WITOLIN,52.23627459,21.11294518
2172,04,WITOLIN,52.23656,21.112402
2173,02,ZAJEZDNIA OSTROBRAMSKA,52.23263958,21.11520708
2181,01,RKS ORZEŁ,52.25042069,21.07806123
2182,02,PODSKARBIŃSKA,52.2505577,21.0743782
2187,02,TOR KOLARSKI,52.25179,21.07303
2189,02,PRZEWORSKA,52.25263464,21.08414171
2195,01,CHŁOPICKIEGO,52.24572685,21.10480655
2200,04,DWERNICKIEGO,52.25025059,21.08525342
2201,02,MYCIELSKIEGO,52.25037265,21.08190038
2783,02,GŁOGI,52.40321187,21.03781203
2784,02,LIPY,52.40797518,21.03835084
2795,12,NOWE BEMOWO,52.26064681,20.92498893
2796,01,METRO KSIĘCIA JANUSZA,52.23898464,20.94394047
2806,01,KULSKIEGO,52.20108824,21.00024836
2811,01,MŁYNARSKA,52.23711947,20.97316055
2824,25,DW. CENTRALNY,52.22936467,21.003778
2825,29,DW. CENTRALNY,52.22928554,21.00377211
2831,04,TELIGI,52.15528,21.05062
2839,03,OGRÓD BOTANICZNY,52.104979,21.09271672
2840,02,OGRÓD BOTANICZNY,52.10494793,21.09797563
2841,01,MEISSNERA,52.22158204,21.0905965
2851,01,BEETHOVENA,52.19447136,21.04887555
2858,01,WIELICKA,52.18945613,21.01933298
2867,02,GLEBOWA,52.17944882,21.10179227
2870,02,HOSPICJUM ONKOLOGICZNE,52.14458147,21.0381732
2873,03,INSTYTUT FIZYKI,52.17807449,21.00789421
2888,06,RONDO ZESŁAŃCÓW SYBERYJSKICH,52.21719722,20.96071656
2898,02,NATOLIN PŁN.,52.14498,21.05075
2905,02,CZORSZTYŃSKA,52.24324326,20.95822864
2906,01,CZORSZTYŃSKA,52.24301,20.9578
2907,05,PKP KOŁO,52.24661545,20.95745864
2908,06,PKP KOŁO,52.2468743,20.95777104
2916,01,SOSNKOWSKIEGO,52.19002101,20.88987467
2917,02,RAKOWIECKA-SANKTUARIUM,52.20638063,20.99928124
2921,02,OS. JANTAR,52.22300296,21.08532507
2936,04,METRO CENTRUM NAUKI KOPERNIK,52.23979503,21.02926842
2944,01,INSTRUKTORSKA,52.25034155,21.17429224
2945,02,INSTRUKTORSKA,52.25011396,21.17489701
2947,01,MILENIJNA,52.31947961,20.96837504
2950,02,WAPOWSKIEGO,52.19067747,20.89200522
2952,03,SPISAKA,52.18844123,20.88410885
2954,02,STARODĘBY,52.183941,20.89707542
2963,02,MALBORSKA,52.29735486,21.05585809
2975,02,SPISAKA,52.18927293,20.88294872
2976,02,KUŹNICY KOŁŁĄTAJOWSKIEJ,52.18897419,20.87633677
2978,02,METRO KSIĘCIA JANUSZA,52.239484,20.940693
2983,02,KRZEMIENNA,52.3153931,21.05073053
2984,01,KRZEMIENNA,52.31376097,21.05135051
2989,02,MAŁYCH DĘBÓW,52.33177067,21.04721926
2990,01,MAŁYCH DĘBÓW,52.33091471,21.04715053
2145,01,ZAMIENIECKA,52.23478485,21.09892666
2146,01,WAŁ MIEDZESZYŃSKI,52.22649372,21.05420536
2150,01,MIĘDZYNARODOWA,52.22991126,21.06727527
2152,02,PRZYCZÓŁEK GROCHOWSKI,52.235398,21.078739
2154,03,PRZYCZÓŁEK GROCHOWSKI,52.23580897,21.0816664
2155,02,POLIGONOWA,52.23595475,21.08828674
2156,02,ZAMIENIECKA,52.23451121,21.09853887
2164,01,TARNOWIECKA,52.23709564,21.10472637
2171,02,WITOLIN,52.23628281,21.11278307
2179,02,DWERNICKIEGO,52.25082297,21.08466363
2183,03,TERESPOLSKA,52.25037225,21.06932675
2193,01,PKP OLSZYNKA GROCHOWSKA,52.24778,21.10665
2196,01,OSIEDLE MŁODYCH,52.24842021,21.0969576
2197,02,GARWOLIŃSKA,52.24942,21.09299
2198,01,SZASERÓW-SZPITAL,52.25022885,21.08752751
2199,01,DWERNICKIEGO,52.24833313,21.08423267
2208,01,ŻUPNICZA,52.2504915,21.05894996
2215,03,UMIŃSKIEGO,52.22735,21.0946
2216,01,WAŁ GOCŁAWSKI,52.2260754,21.07874388
2219,02,ZWYCIĘZCÓW,52.23310524,21.0668109
2222,02,PERKUNA,52.23236686,21.09646598
2225,02,UMIŃSKIEGO,52.22806907,21.09425748
2228,02,GOCŁAW,52.22205,21.10216
2235,04,STACJA KRWIODAWSTWA,52.23284001,21.0606476
2238,04,BORA-KOMOROWSKIEGO,52.22557964,21.09295989
2240,03,BORA-KOMOROWSKIEGO,52.22449211,21.09209248
2248,02,KLASZTORNA,52.25482089,21.16190514
2252,02,PLANETOWA,52.18905179,21.18447325
2260,02,SPALINOWA,52.23926972,21.08030935
2264,02,GRENADIERÓW,52.24363049,21.07880483
2271,02,ADAMPOLSKA,52.23853463,21.05575712
2276,01,KINOWA,52.2419809,21.07031991
2280,03,OS. MAJDAŃSKA,52.23857407,21.08500294
2282,02,KRYNICZNA,52.2289976,21.05193178
2290,02,WIESIOŁKA,52.17193169,21.18794263
2291,02,MAJERANKOWA,52.17232819,21.18168487
2292,02,DRACENY,52.17569892,21.17690836
2293,02,HORTENSJI,52.17757449,21.17399025
2299,01,OLCHY,52.18300063,21.20266143
2302,02,KWITNĄCEJ AKACJI,52.18232917,21.21854266
2992,02,MAŁEGO RYCERZA,52.33466329,21.04732141
2993,01,MAŁEGO RYCERZA,52.3340738,21.0472498
2997,02,MOCHTYŃSKA-KANAŁ,52.347378,21.043174
2998,01,ARONIOWA,52.35196835,21.03876578
2999,02,ARONIOWA,52.35319331,21.03864808
3001,03,MOCHTYŃSKA,52.35713625,21.03645602
3009,01,CERAMICZNA,52.32062654,20.96868909
3011,01,ĆMIELOWSKA,52.32385671,20.96050064
3014,02,STRUMYKOWA,52.33197387,20.94823486
3015,01,STRUMYKOWA,52.33216294,20.94615346
3016,01,ĆWIKLIŃSKIEJ,52.33188032,20.95152126
3017,02,ĆWIKLIŃSKIEJ,52.33166484,20.95301339
3019,04,TARCHOMIN,52.3189496,20.95292842
3033,01,PKP URSUS PŁN.,52.20582277,20.8885778
3034,02,PKP URSUS PŁN.,52.2053232,20.88961767
3038,01,STARODĘBY,52.18435136,20.89955682
3039,01,ŻYWIECKA,52.18553678,20.9038582
3047,02,PRAŻMOWSKA,52.192091,20.87832448
3048,02,KENIGA,52.19337587,20.86817255
3053,01,ROGATKOWA,52.20362508,21.16222015
3057,02,NIEŚWIESKA,52.26325615,21.0778442
3059,03,KSIĘŻNEJ ANNY,52.26130747,21.07752042
3067,01,DZIERŻONIOWSKA,52.3086336,20.92766123
3079,01,SZYMANOWSKIEGO,52.2628458,21.03458809
3080,01,ROLNICZA,52.23180675,21.15914472
3089,04,CHŁOPICKIEGO,52.24603777,21.10571682
3092,02,PODOLSKA,52.24434537,21.11436195
3093,01,PODOLSKA,52.24434761,21.11530266
3094,01,PKP TARGÓWEK,52.26261709,21.05262023
3102,01,BASENY INFLANCKA,52.25639747,20.98795913
3103,02,BASENY INFLANCKA,52.25628462,20.98632121
3104,01,POMIECHOWSKA,52.21408061,21.15099073
3105,02,POMIECHOWSKA,52.2139695,21.15262984
3108,03,PKP ANIN,52.21401165,21.15660456
3113,01,JESIENNYCH LIŚCI,52.30948436,21.06179887
3114,01,OKRĘŻNA,52.15799318,20.94553532
3121,02,FIELDORFA,52.22040439,21.08786559
3122,01,FIELDORFA,52.22005,21.08828
3125,01,NOWE WŁOCHY,52.20879936,20.89545932
3131,01,SOSNOWA,52.24726215,21.1842961
3132,01,POGODNA,52.21616509,21.23852015
3142,02,SAGALLI,52.22173698,21.2227927
2203,01,TOR KOLARSKI,52.25193491,21.0734103
2205,01,PRZEWORSKA,52.25271133,21.08284865
2209,01,DW. WSCHODNI (LUBELSKA),52.25029606,21.05243666
2210,01,BUKOWSKIEGO,52.23012,21.09496
2214,01,HORBACZEWSKIEGO,52.22366322,21.09836963
2217,01,AFRYKAŃSKA,52.22508785,21.07230585
2221,02,WALECZNYCH,52.23521966,21.05931139
2223,02,ABRAHAMA,52.22605975,21.08286915
2224,01,UMIŃSKIEGO,52.22709,21.0934
2227,01,GOCŁAW,52.22214,21.10226
2231,02,AFRYKAŃSKA,52.22547504,21.06917602
2233,01,BRAZYLIJSKA,52.23091889,21.06364501
2234,01,ZWYCIĘZCÓW,52.23323,21.06635
2236,01,STACJA KRWIODAWSTWA,52.2316508,21.06113038
2237,01,WALECZNYCH,52.23496812,21.05946251
2239,02,BORA-KOMOROWSKIEGO,52.22525264,21.0917291
2243,02,MEISSNERA,52.22250376,21.09136872
2244,02,CM. OFIAR WOJNY,52.23383076,21.15841761
2250,02,RADOŚĆ-WODOCIĄG,52.19843866,21.17501042
2251,02,ZBÓJNOGÓRSKA,52.19248852,21.18097017
2253,01,KOLARSKA,52.20171429,21.17167163
2262,01,WALEWSKA,52.23901882,21.07463187
2278,01,OS. MAJDAŃSKA,52.23995838,21.08163218
2279,04,OS. MAJDAŃSKA,52.23906899,21.08440595
2283,02,MEKSYKAŃSKA,52.22941862,21.0573887
2284,01,FRANCUSKA,52.23453139,21.05393398
2289,02,NADARZYŃSKA,52.17130607,21.19314674
2297,02,POWOJOWA,52.18409011,21.18421156
2321,02,DZIELNICOWA,52.22210015,21.13802284
2326,02,ZERZEŃ,52.19917804,21.13479582
2331,01,ODRĘBNA,52.18079953,21.14835605
2342,01,WOJSŁAWICKA,52.20697403,21.11064796
2349,01,ARABSKA,52.22142093,21.07224356
2352,01,MOST SIEKIERKOWSKI,52.21754467,21.09692497
2357,02,JEZIOROWA,52.19249902,21.12269319
2365,02,ODRĘBNA,52.18068725,21.14853853
2369,02,ZWOLEŃSKA,52.19691366,21.13581774
2371,01,LEBIODOWA,52.20586602,21.13389704
2374,01,KLIMONTOWSKA,52.21745,21.13364
2375,01,LUCERNY,52.213774,21.1328587
2379,01,MOTYLKOWA,52.20095916,21.14969593
3145,01,GILARSKA,52.28657429,21.0472384
3147,02,MAZURSKA,52.10225679,21.24741995
3153,01,MODRA,52.08901683,20.81994482
3156,02,STANISŁAWÓW,52.39445754,21.03403283
3157,01,STANISŁAWÓW,52.39350153,21.03344399
3161,01,NIZINNA,52.21132422,20.7593183
3162,02,NORWIDA,52.17405607,20.85093199
3165,01,WIEJSKA,52.30639763,21.09119565
3178,03,PUSTELNIK,52.33825394,21.11901808
3182,01,MAGDALENKA,52.09834,20.90938
3183,02,MAGDALENKA,52.09805,20.91098
3197,01,POLNA,52.06561299,20.92776554
3200,02,WŁADYSŁAWÓW,52.06372,20.92155
3212,02,WOJSKA POLSKIEGO,52.07497104,21.0228934
3213,01,WOJSKA POLSKIEGO,52.0750024,21.02185318
3214,01,JARZĄBKA,52.07371312,21.01549066
3220,02,MACIERZANKI,52.11544106,20.80883733
3223,01,PASCHALISA-JAKUBOWICZA,52.270313,20.807521
3226,02,OSIEDLOWA,52.264783,20.823154
3227,01,OSIEDLOWA,52.2639751,20.82484027
3234,01,SZYMANOWSKIEGO,52.28093678,20.8471496
3236,04,KLAUDYN,52.27696575,20.86457237
3245,01,AKACJOWA,52.27361858,20.80193826
3246,02,AKACJOWA,52.27271263,20.80207345
3261,01,WIOSENNA,52.26069015,20.68592228
3262,02,WIOSENNA,52.26046844,20.68763918
3279,02,GÓRASZKA,52.19417512,21.27658766
3281,01,URZĄD GMINY,52.17268139,21.29316901
3290,01,LIPOWO,52.140058,21.392826
3291,01,OŚRODEK ZDROWIA,52.13450964,21.41169268
3295,01,PĘCLIŃSKA,52.171677,21.305869
3297,01,KOTLINY,52.14823037,21.38038107
3300,01,MALCANÓW,52.14801958,21.36858238
3310,02,BRZOZOWA,52.03155161,20.87086803
3311,01,BRZOZOWA,52.03208818,20.87039515
3315,01,MARIEW,52.28211226,20.74372495
3318,01,LEŚNA,52.26506433,20.70326344
3319,03,BORZĘCIN DUŻY,52.25296519,20.73505169
2307,02,CZOŁGISTÓW,52.18263951,21.21150617
2310,01,LIMBY,52.1833812,21.19595202
2315,01,DRACENY,52.17615032,21.17590808
2316,04,TAWUŁKOWA,52.1733244,21.1772378
2320,02,SPADOWA,52.22404741,21.1398398
2325,01,KOMBAJNISTÓW,52.20297941,21.13425846
2327,04,ZWOLEŃSKA,52.19668974,21.13661491
2329,01,BORKÓW,52.1898111,21.14072936
2334,02,ROMANTYCZNA,52.17618856,21.14540403
2337,01,PEONII,52.18669031,21.12885435
2344,02,MOST SIEKIERKOWSKI,52.21759395,21.09746142
2345,01,ALGIERSKA,52.22096741,21.08294852
2347,02,RZYMSKA,52.22231539,21.06384375
2351,02,KADETÓW,52.21246699,21.10442763
2354,02,BRONOWSKA,52.19979787,21.11808967
2361,01,ROMANTYCZNA,52.17533472,21.14722709
2366,02,CYLICHOWSKA,52.194313,21.137912
2368,01,ZWOLEŃSKA,52.19624824,21.13625412
2377,01,SPADOWA,52.22361404,21.13935374
2398,01,OGRODY DZIAŁKOWE PALUCH,52.1534178,20.96529102
2401,01,PRZELOTOWA,52.1566905,20.9505805
2404,02,STOICKA,52.16597244,20.93267692
2405,02,OGRODY DZIAŁKOWE PALUCH,52.15294972,20.9650965
2408,02,PRZELOTOWA,52.15669598,20.95038757
2414,01,MŁYN,52.1607512,20.9275411
2416,01,KOŚCIÓŁ,52.15061305,20.91697087
2417,01,PUCHAŁY,52.14611978,20.9111524
2422,02,FALENTY DUŻE,52.13402816,20.91629461
2436,01,DŁUGA,52.13421,20.97462
2442,02,OBJAZDOWA,52.14507012,20.95593326
2449,01,OBJAZDOWA,52.14515477,20.95396483
2452,01,BALETOWA,52.13335849,20.97922965
2459,02,STARZYŃSKIEGO,52.11787,20.979289
2463,02,PODLEŚNA,52.09230736,20.8820914
2466,01,DZIAŁKOWA,52.12973764,20.89716528
2468,02,URSUS-SANKTUARIUM,52.19160234,20.86143814
2469,01,ŚMIGIELSKA,52.19824711,20.87055543
2471,02,KRÓLOWEJ BONY,52.20061213,20.8677738
2473,02,WŁADYSŁAWA HERMANA,52.19501431,20.86252835
2480,01,TRAUGUTTA,52.1847085,20.84059721
2484,02,AL. PIŁSUDSKIEGO,52.19294753,20.83533566
2490,02,TRAUGUTTA,52.18521767,20.84010268
2380,02,ŻONKILOWA,52.20308819,21.15959387
2383,02,WIĄZANA,52.19865428,21.14274221
2386,02,JAGIELLOŃSKA,52.24522006,21.17770807
2391,04,ZAJEZDNIA KLESZCZOWA,52.19662643,20.92342394
2393,01,SIERAKOWSKIEGO,52.25001297,21.03082935
2395,01,LANCIEGO,52.14098569,21.06180505
2397,01,PALUCH,52.15171421,20.9650346
2399,01,SCHRONISKO DLA ZWIERZĄT,52.15591336,20.96320875
2400,01,OGRODY DZIAŁKOWE NA SKRAJU,52.15630157,20.95960373
2406,02,SCHRONISKO DLA ZWIERZĄT,52.15592096,20.96280811
2407,02,OGRODY DZIAŁKOWE NA SKRAJU,52.15622344,20.95980268
2410,02,OLSZOWA,52.16066048,20.936505
2423,02,FALENCKA,52.1379,20.9018
2427,02,SPORTOWA,52.15327774,20.91932242
2430,01,JANKI,52.13856,20.90112
2435,02,BALETOWA,52.13332,20.97946
2448,01,PROMYKA,52.14680087,20.94569098
2460,01,PODLEŚNA,52.09330105,20.88299073
2461,02,NOWY SĘKOCIN,52.1237582,20.89446734
2465,01,NOWY SĘKOCIN,52.12484539,20.89523798
2477,02,ŚMIGIELSKA,52.19796051,20.86893777
2481,02,ORZESZKOWEJ,52.17858181,20.84082994
2483,02,TORUŃSKA,52.19209443,20.84095726
2492,01,ORZESZKOWEJ,52.17758467,20.84010158
2497,02,PL. SPORTOWY,52.07790454,21.11133564
2504,01,PIASTA,52.07849916,21.1180875
2506,02,SKOLIMÓW,52.07713482,21.09993299
2509,01,JASNA,52.0779155,21.07128505
2513,01,OSIEDLE MIRKÓW,52.09750175,21.13527891
2522,01,OS. MŁODYCH,52.42169367,20.92555794
2523,01,ORZECHOWA,52.41822478,20.9241104
2531,02,LEGIONOWA,52.36187289,21.12198924
2532,04,STRUGA,52.359035,21.134128
2534,01,HALLERA,52.34314237,21.12136071
2535,01,PUSTELNIK,52.33870677,21.1176905
2539,02,KOSAĆCOWA,52.15670222,21.18891541
2546,01,FALENICA,52.15947704,21.20329766
2552,02,KS. SZULCZYKA,52.17118363,21.23281859
2555,02,NAPOLEONA BONAPARTE,52.17175114,21.22704371
2556,02,PRZEŁĘCZY,52.16888671,21.223832
3321,03,MOST SIEKIERKOWSKI,52.21836413,21.09832722
3322,01,HIPODROM,52.23289671,21.22439184
3323,02,HIPODROM,52.23163092,21.2242341
3325,04,ELBLĄSKA,52.25937452,20.96236164
3330,01,WARYŃSKIEGO,52.29999826,21.15187373
3331,02,WARYŃSKIEGO,52.30069989,21.15394132
3332,01,PRYMASA WYSZYŃSKIEGO,52.30277189,21.15893854
3352,02,KOŚCIUSZKI,52.16526935,20.80538108
3353,01,KOŚCIUSZKI,52.16599231,20.806231
3354,01,AL. WOJSKA POLSKIEGO,52.15973305,20.80147171
3355,03,OŁÓWKOWA,52.15981,20.79245
3361,02,ZIELENIECKA,52.28453216,21.12533409
3367,01,KOŚCIUSZKI,52.32051694,21.09346525
3370,02,NOWOTYSKA,52.19716134,20.89369887
3375,01,ZDZIARSKA,52.34113244,21.05895082
3376,02,ZDZIARSKA,52.34182071,21.05969002
3397,07,NOWODWORY,52.33404538,20.94204502
3398,10,NOWODWORY,52.33452414,20.94227452
3399,09,NOWODWORY,52.33404149,20.94221497
3403,22,WIATRACZNA,52.2449831,21.0871442
3405,02,PKP MOKRY ŁUG,52.27643285,21.16796648
3430,15,NOWE BEMOWO,52.26043199,20.9249203
3439,09,GOCŁAW,52.22158203,21.10304606
3441,02,GŁÓWNA,52.47184121,21.0699897
3442,01,GŁÓWNA,52.47185261,21.0695011
3445,02,WDW RYNIA,52.45832498,21.07611197
3446,01,WDW RYNIA,52.45651449,21.07409806
3450,07,GOCŁAW,52.22236351,21.10051961
3455,02,GDECKA,52.24101722,21.10132286
3459,01,SŁOWACKIEGO,52.39966925,20.94191898
3462,01,SZPITAL POWIATOWY,52.09735142,21.26479173
3464,01,MICKIEWICZA,52.39800291,20.92296877
3465,01,ARESZT ŚLEDCZY GROCHÓW,52.25585,21.11406
3466,02,ARESZT ŚLEDCZY GROCHÓW,52.25558,21.11375
3468,01,OS. PRZYLESIE,52.37444277,20.93364013
3478,02,HANKI ORDONÓWNY,52.33338049,20.93642704
3479,01,HANKI ORDONÓWNY,52.33240844,20.93582433
3484,02,WENECKA,52.35688482,21.13320789
3486,03,PKP REMBERTÓW,52.2562174,21.15698282
2493,01,CHOPINA,52.07808873,21.08500369
2496,02,PIASTA,52.07892813,21.11849293
2498,01,SKOLIMÓW,52.07730196,21.10148821
2501,02,JASNA,52.07788998,21.07213479
2502,01,CHYLICE,52.07848928,21.06391496
2505,01,PL. SPORTOWY,52.07786886,21.11008088
2514,04,MIRKOWSKA,52.10037596,21.12538026
2520,01,ARESZT ŚLEDCZY SŁUŻEWIEC,52.15983,20.99232
2521,02,JURAJSKA,52.16356245,20.9923635
2524,01,CZARNA STRUGA,52.36086719,21.11126245
2525,01,LEGIONOWA,52.36160063,21.12336765
2527,02,GRANICZNA,52.35304103,21.13004244
2528,02,HALLERA,52.34425328,21.1226374
2533,01,GRANICZNA,52.35186518,21.128707
2544,01,MERA-PNEFAL,52.15843894,21.19730367
2545,02,FALENICA,52.15943935,21.20349684
2553,01,KS. SZULCZYKA,52.17132374,21.23241399
2558,01,KOSODRZEWINY,52.15696881,21.20271336
2561,01,MICHALINKI,52.15546893,21.21613926
2569,02,OCHOCZA,52.15735791,21.22017336
2570,01,WASILKOWSKA,52.16061646,21.22274842
2573,02,BŁOTA,52.15014569,21.18861803
2575,01,BŁOTA,52.149595,21.18868685
2580,02,POLNA,52.12829162,21.1974069
2581,01,ŚWIDRY MAŁE,52.12316627,21.20111717
2584,02,GÓRKI,52.10891557,21.22083952
2589,01,URZĄD SKARBOWY,52.09827669,21.26620537
2591,02,PARK MIEJSKI,52.09900524,21.26874673
2598,01,POLNA,52.12766821,21.19751697
2599,02,ŚWIDRY MAŁE,52.12367845,21.20076057
2603,02,ŚWIDRY WIELKIE,52.10592429,21.23491514
2605,02,BATOREGO,52.09957393,21.24949339
2608,01,LAWINOWA,52.17330159,21.19999505
2617,02,GRZYBOWA,52.24771319,21.19913574
2622,01,CHODKIEWICZA,52.25013893,21.23206198
2625,01,ORLA,52.24909,21.2546
2632,03,WOLA GRZYBOWSKA,52.24864704,21.24380095
2633,02,WIOSENNA,52.24969773,21.23992964
2645,02,TRZYKROTKI,52.20893,21.20115
2649,01,TERESPOLSKA,52.21897153,21.30106458
2664,02,GWARNA,52.2216965,21.27861546
3490,03,ABRAHAMA,52.22634503,21.08385926
3492,02,OS. ORLIK,52.22818671,21.08869504
3493,01,OS. ORLIK,52.22801,21.0884
3494,01,OLSZOWA,52.09979648,21.25821649
3501,02,PARK KASKADA,52.27344438,20.96693805
3503,07,PKP FALENICA,52.16018975,21.21103644
3504,02,WĄSKA,52.15301017,21.21941795
3505,01,WĄSKA,52.15241862,21.21983232
3513,04,CISZEWSKIEGO,52.15982248,21.05086936
3515,02,CISZEWSKIEGO,52.15945835,21.05217393
3516,03,URSYNÓW PŁD.,52.15312025,21.03948318
3517,03,HERBSTA,52.15182,21.02793
3522,01,DZIECI WARSZAWY,52.19292845,20.90875829
3523,02,DZIECI WARSZAWY,52.19155122,20.90760338
3528,01,GROTY,52.24823,20.8787
3529,02,GROTY,52.24864131,20.8762878
3531,12,METRO WILANOWSKA,52.18004739,21.02377218
3536,01,OSMAŃSKA-DHL,52.15083208,20.99476634
3540,04,KOCJANA,52.24940595,20.89732354
3543,01,FORT RADIOWO,52.26462443,20.88508893
3544,02,POLONEZA,52.15499368,21.00615961
3545,01,POLONEZA,52.15450627,21.00811421
3546,09,AL. ZIELENIECKA,52.24768568,21.04853344
3548,04,PIASTÓW ŚLĄSKICH,52.26313156,20.93057975
3569,04,KAJKI,52.22538886,21.1616384
3578,11,METRO MARYMONT,52.27182913,20.96941145
3579,12,METRO MARYMONT,52.27209635,20.96838141
3587,23,METRO MŁOCINY,52.29074622,20.92806249
3588,24,METRO MŁOCINY,52.29095568,20.92756163
3589,01,METRO MŁOCINY,52.28988725,20.93120564
3602,08,PIASKI,52.27094681,20.94420294
3611,02,WARSZAWSKA,52.25312356,20.8054726
3613,02,GEN. KUTRZEBY,52.25031581,20.82748962
3621,02,FORT WAWRZYSZEW,52.27472,20.9045
3628,01,URZĄD STATYSTYCZNY,52.19324,20.97314
3634,12,PKP URSUS,52.19627902,20.88194083
3635,24,PKP URSUS,52.19532162,20.88337917
3636,22,PKP URSUS,52.19550613,20.88312032
3638,02,PRYSTORA,52.18904653,20.90449991
3639,01,PRYSTORA,52.18918248,20.90385622
3646,02,CZERWONA DROGA,52.2017943,20.86964875
3650,02,SUCHY LAS,52.18688223,20.88462372
3652,01,PKP OKĘCIE,52.16656402,20.98532002
2665,02,RATAJA,52.22208795,21.2678714
2670,02,1. PRASKIEGO PUŁKU,52.22360882,21.22416545
2677,02,3 MAJA,52.21060682,20.79010434
2681,01,UMIASTOWSKA,52.21103617,20.77125378
2691,02,ZAKAMAREK,52.13050304,21.11435092
2696,01,SKIBIŃSKIEGO,52.3078386,20.76738736
2698,02,PARKOWA,52.30048306,20.78455587
2699,01,LANGIEWICZA,52.29547459,20.80137951
2703,02,SIENKIEWICZA,52.29077604,20.82568638
2712,02,URZĄD GMINY,52.29253643,20.81557935
2715,04,SIERAKOWSKA,52.29560418,20.80420908
2718,02,3 MAJA,52.30350516,20.77698913
2720,01,GOŁKÓW-LETNISKO,52.04932521,20.98972002
2724,02,MILENIUM,52.03305218,20.95109861
2729,02,POD KAJETANY,52.07786032,20.83720566
2732,02,KAJETANY,52.092158,20.814263
2735,01,GOŁĘBIA,52.08561188,20.82532206
2748,02,POD SZCZAKI,52.02165067,20.88080653
2749,02,GRANICZNA,52.02552,20.87692
2757,01,GOŁASZEWSKA,52.21153975,20.75002337
2759,01,AGRICOOP,52.2144929,20.74457326
2766,01,WARSZAWSKA,52.21309995,21.33150878
2768,01,REMBELSZCZYZNA,52.37727168,21.02899763
2780,01,PKP NIEPORĘT,52.43050694,21.03043267
2782,01,URZĄD GMINY,52.42179492,21.03523303
2786,02,REMBELSZCZYZNA,52.37946939,21.02926162
2787,09,METRO RATUSZ ARSENAŁ,52.24470764,21.00266081
2797,01,PARK MOCZYDŁO,52.23838915,20.94991394
2799,02,NOWODWORY,52.33321997,20.94168169
2801,04,NOWODWORY,52.33223268,20.94271929
2802,02,STEFANIKA,52.32821713,20.94096105
2805,01,KONCERTOWA,52.16355482,21.02688655
2808,01,METRO RATUSZ ARSENAŁ,52.24552462,20.99994231
2810,01,PŁOCKA-SZPITAL,52.23698082,20.9663304
2813,02,GEN. MACZKA,52.26293102,20.95245193
2816,01,OGRODY DZIAŁKOWE BEMOWO,52.2692755,20.93318385
2823,21,DW. CENTRALNY,52.22944377,21.00372417
2848,02,MAŁE SIEKIERKI,52.2029079,21.0703317
2849,03,AL. WITOSA,52.19696547,21.05061652
2850,02,BEETHOVENA,52.19595301,21.05084496
3655,02,SZEROKA,52.25761566,21.12102946
3656,01,SZEROKA,52.2577129,21.12205941
3657,08,GOCŁAW,52.22349748,21.10179929
3658,02,STASZICA,52.23866143,21.22206735
3659,01,STASZICA,52.23967306,21.22226537
3662,01,KAPITULNA,52.24653368,21.01149442
3667,01,GŁÓWNA,52.3532017,20.94107894
3669,03,ALUZYJNA,52.349845,20.94564241
3670,02,ALUZYJNA,52.35080428,20.94576614
3672,01,DĄBRÓWKA WIŚLANA,52.34853192,20.94230614
3705,02,KRAKUSA,52.40150464,20.95389096
3706,01,KRAKUSA,52.40103042,20.95437972
3709,02,OS. BUKOWIEC,52.39496155,20.95565806
3711,01,GEN. ROI,52.39649,20.95933
3712,02,GEN. ROI,52.39643,20.95901
3720,04,REMBELSZCZYZNA,52.37945324,21.02835127
3726,02,STRUGA,52.35940611,21.13525883
3731,02,DZIECHCINIEC,52.14841541,21.36237718
3732,02,DZIECHCINIEC-KOLONIA,52.15010947,21.34383528
3740,01,DUCHNÓW,52.19156998,21.35896452
3741,02,DUCHNÓW,52.19202334,21.36055453
3743,01,SPACEROWA,52.19021576,21.34707143
3758,02,NOWE SŁUPNO,52.37914428,21.15181449
3765,02,KS. CZARTORYSKIEJ,52.41609888,21.17939406
3766,01,KS. CZARTORYSKIEJ,52.41514012,21.17874884
3767,02,TRAUGUTTA,52.41719883,21.18130363
3770,01,KORCZAKA,52.41380327,21.19224544
3771,02,KORCZAKA,52.41321931,21.19362941
3772,01,OS. VICTORIA,52.41016721,21.2014622
3774,02,NADMA,52.36197,21.16587
3777,01,JAWORÓWKA,52.35998476,21.1466787
3798,01,SZASERÓW,52.24428157,21.11787977
3803,01,STARE ZAŁUBICE,52.48061335,21.11708371
3805,02,STARE ZAŁUBICE,52.48048586,21.11574987
3806,02,MARCINKI,52.48011053,21.10982925
3807,01,ZEGRZYŃSKA,52.47967496,21.10268828
3808,02,ZEGRZYŃSKA,52.48011053,21.10982925
3809,02,WOLICA,52.47915719,21.09547716
2559,01,JACHOWICZA,52.15384078,21.20352144
2562,01,BYSTRZYCKA,52.16149309,21.21458372
2565,01,NARCYZOWA,52.15875716,21.22378483
2568,02,PODKOWY,52.15914802,21.21688788
2574,03,BŁOTA,52.1498608,21.18880902
2577,02,KS. MALINOWSKIEGO,52.14606497,21.18958021
2578,02,PODLEŚNA,52.1379951,21.19152777
2582,02,WYSZYŃSKIEGO,52.12047613,21.20597171
2583,02,DROGOWCÓW,52.11466144,21.21349498
2588,04,SZPITAL POWIATOWY,52.09869726,21.26276573
2594,02,HOŻA,52.10380849,21.26506926
2595,01,KS. MALINOWSKIEGO,52.14470557,21.18980111
2597,01,NOWA WIEŚ,52.13140154,21.19501514
2600,01,WYSZYŃSKIEGO,52.11955661,21.20703078
2607,02,GRUNTOWA,52.166016,21.20735049
2613,04,POŻARYSKIEGO,52.20667429,21.17407074
2618,01,GROSZÓWKA,52.24731965,21.20727796
2629,01,PUSZKINA,52.24861142,21.25855432
2638,02,REJTANA,52.24661493,21.21413966
2641,01,WIŚNIOWA GÓRA,52.21008616,21.20561615
2642,01,TRZYKROTKI,52.20871,21.200035
2646,01,ZAGÓRZE-SANATORIUM,52.19878836,21.24581546
2650,01,PODGÓRNA,52.22050034,21.29406683
2655,02,NIZINNA,52.22312512,21.23798625
2656,01,FABRYCZNA,52.2235804,21.22973234
2658,01,OBJAZDOWA,52.22426771,21.20988122
2663,02,OGRODNICZA,52.22144914,21.28550927
2666,02,HOTELOWA,52.222359,21.260313
2667,02,SZOSA LUBELSKA,52.22251653,21.25212996
2671,01,1. PRASKIEGO PUŁKU,52.22387034,21.22239802
2673,02,WAWERSKA,52.22420164,21.20685887
2674,02,NIZINNA,52.21151004,20.75577954
2679,01,PARKOWA,52.21488598,20.7750242
2680,02,UMIASTOWSKA,52.21121113,20.76878188
2682,01,KIERBEDZIA,52.21083693,20.778631
2683,01,3 MAJA,52.21042695,20.7926619
2702,01,URZĄD GMINY,52.29206,20.817832
2704,02,SOKOŁOWSKIEGO,52.291381,20.84011681
2705,01,POCZTOWA,52.29243338,20.85104938
2707,01,SIERAKÓW,52.3126479,20.81236815
2714,02,SIERAKOWSKA,52.29525637,20.80229413
2859,03,METRO CENTRUM NAUKI KOPERNIK,52.24016537,21.03101954
2860,02,MOST ŚWIĘTOKRZYSKI,52.24408721,21.03772127
2864,02,TUZINOWA,52.18464459,21.09867975
2874,01,KABATY-STP,52.12647467,21.06574527
2886,06,LUBELSKA,52.24799001,21.05223101
2889,02,TARNINY,52.17218835,21.01137997
2890,03,BEŁDAN,52.17355195,21.01190986
2894,01,ŚWIĘTOJERSKA,52.24974154,21.00297176
2899,01,WARCHAŁOWSKIEGO,52.14422294,21.04370522
2902,04,STRYJEŃSKICH,52.14200077,21.04384057
2912,04,GEN. MACZKA,52.26195622,20.95243704
2915,01,SKOROSZEWSKA,52.19349621,20.90377911
2919,02,KULSKIEGO,52.20224732,21.00050404
2920,03,MEISSNERA,52.22224061,21.08997257
2922,01,OS. JANTAR,52.22284377,21.08692185
2924,02,NARODOWA,52.21516425,21.10120953
2928,03,NATOLIN PŁN.,52.14490736,21.0521883
2931,02,OS. PATIO,52.12825586,21.0973365
2934,01,WAFLOWA,52.11821782,21.10342181
2938,04,STARA MIŁOSNA (UŁAŃSKA),52.22160489,21.24327815
2943,02,NIEDZIAŁKOWSKIEGO,52.25337309,21.16631175
2946,02,MILENIJNA,52.3188555,20.96618687
2953,04,STARODĘBY,52.1845077,20.89767946
2964,01,MALBORSKA,52.2963098,21.05468834
2965,01,DOSTAWCZA,52.21631617,20.89189475
2969,01,UKSW,52.28924269,20.95047759
2972,02,BUKOWSKIEGO,52.23020402,21.0953592
2981,01,WSPÓŁCZESNA,52.30782778,21.05200616
2987,02,BERENSONA,52.32333219,21.04871581
2995,01,MAŃKI-WOJDY,52.339558,21.0476437
2996,01,MOCHTYŃSKA-KANAŁ,52.347357,21.043053
3000,02,MOCHTYŃSKA,52.358139,21.03674559
3006,03,RZECZNA,52.26843787,21.07227841
3007,02,KRAŚNICKA,52.274313,21.066439
3012,02,KAMIŃSKIEGO,52.32019442,20.9543514
3022,04,BALKONOWA,52.28557756,21.04068906
3028,02,IDZIKOWSKIEGO,52.24347735,21.26202896
3040,02,ŻYWIECKA,52.185646,20.903608
3044,02,KRYNOLINY,52.291329,21.07917
3046,02,RADZYMIŃSKA,52.30082056,21.08695514
3054,02,SKRZYNECKIEGO,52.2280977,21.145431
3065,04,RZECZNA,52.2670796,21.07357686
3810,01,WOLICA,52.47913265,21.09473335
3814,02,ZAMENHOFA,52.24723413,20.99832903
3816,02,PAŁAC,52.37847375,20.91581397
3817,01,CHOTOMOWSKA,52.3814056,20.90822633
3828,01,DWORKOWA,52.37196246,20.93434317
3831,01,STAROWIEJSKA,52.08347846,20.79254702
3832,02,STAROWIEJSKA,52.083326,20.79252361
3836,01,KOSTOWIEC,52.06173528,20.74487148
3838,01,ROZALIN,52.04891932,20.74490678
3841,01,MŁOCHÓW,52.04831647,20.78095663
3842,02,PLATANOWA,52.04899521,20.78385651
3844,01,KRAKOWIANY,52.02317358,20.78680005
3852,01,BĄKÓWKA,52.04085531,20.95593488
3863,01,WILANOWSKA,52.09344328,21.03731682
3870,02,OS. NAFTA,52.350623,21.24360051
3878,01,ECHA LEŚNE,52.31778281,21.03596614
3880,01,KAMYKOWA,52.31772,21.04181
3881,03,JURANDA ZE SPYCHOWA,52.31789603,21.04974348
3884,02,OS. DERBY III,52.31986095,21.05763176
3888,04,ZEGRZYŃSKA-IMGW,52.40920218,20.95523265
3897,02,BODYCHA,52.18250977,20.89228058
3899,01,LALKI,52.1970216,20.88074697
3911,01,BUCHALTERYJNA,52.27090575,21.17048999
3913,02,BUCHALTERYJNA,52.27160667,21.17062863
3915,01,ZIELONA,52.23876477,21.19172069
3917,02,UROCZA,52.2422795,21.19075951
3918,01,UROCZA,52.24226012,21.19062089
3926,02,TRENÓW,52.31582048,20.88232583
3929,03,MIĘDZYLESIE,52.20814084,21.19631887
3931,02,PLUTONU TORPEDY,52.19685936,20.89013023
3932,01,POMORSKA,52.32641221,20.95720872
3936,04,CHEŁMSKA,52.20245778,21.04840409
3938,01,MIĘDZYBORSKA,52.24606074,21.07334019
3939,02,MIĘDZYBORSKA,52.245715,21.075442
3943,04,KADETÓW,52.21210787,21.10628545
3951,02,SPORTOWA,52.252381,20.81657473
3959,02,JUHASÓW,52.19583669,21.17048524
3960,01,JUHASÓW,52.19490903,21.17052253
3970,15,PKP URSUS,52.19450829,20.88308715
3977,01,PĘCLIN,52.16886822,21.35893686
3978,02,PODLEŚNA,52.16214884,21.35442666
3074,01,CZERWONYCH BERETÓW,52.26156662,21.17836966
3088,01,ORLĄT LWOWSKICH,52.19094383,20.86559514
3097,02,BADYLARSKA,52.17790703,20.90950885
3106,01,PIELĘGNIAREK,52.21420445,21.14245787
3109,04,BEETHOVENA,52.19543845,21.0484933
3110,04,LUCERNY,52.21422818,21.13385997
3116,12,RONDO STARZYŃSKIEGO,52.2640869,21.02316836
3117,01,POTULICKA,52.28673525,21.08186469
3120,02,RYCHNOWSKA,52.17484934,21.14920865
3124,01,HUBALA-DOBRZAŃSKIEGO,52.24938234,20.86947874
3139,02,MONIUSZKI,52.25117434,21.21736827
3143,03,MARCELIN,52.31839285,20.99870995
3148,01,WÓLKA KOSOWSKA,52.05738,20.84302
3150,02,MODRA,52.0885686,20.82058055
3152,01,SZAMOTY,52.06769707,20.84377517
3154,01,PRZYLEŚNA,52.38486394,21.02973252
3158,03,LANGIEWICZA,52.2949361,20.80021172
3159,02,POZNAŃSKA,52.21131505,20.7636003
3163,01,NORWIDA,52.17382893,20.85293472
3167,02,KOŁOBRZESKA,52.0847966,21.08909253
3170,01,OKRZESZYN,52.12929047,21.14541631
3173,02,KĘPA OKRZEWSKA,52.13127707,21.1486689
3177,02,LIPOWA,52.03939797,20.94566951
3180,01,GRANICZNA,52.0997,20.89914
3188,02,SZKOLNA,52.08560515,20.94976523
3191,02,KOLONIA LESZNOWOLA,52.07411609,20.96632964
3198,02,POLNA,52.06578621,20.92849224
3199,01,WŁADYSŁAWÓW,52.06332359,20.920754
3206,01,KRÓTKA,52.08077017,20.975562
3207,02,KRÓTKA,52.08087785,20.97730059
3219,02,KOMOROWSKA,52.10682598,20.81381864
3221,02,JODŁOWA,52.11591135,20.79870537
3222,02,LIPOWA,52.10620991,20.8020697
3225,02,LIPKÓW,52.2737227,20.8075621
3228,02,THOMME,52.26107349,20.83164396
3230,03,KLAUDYN,52.2749228,20.86336202
3232,01,VIVALDIEGO,52.27479963,20.84543704
3237,02,PRUSA,52.24970287,20.86623605
3238,02,REYMONTA,52.25068109,20.85932275
3242,01,CMENTARZ,52.25105427,20.84939753
3243,01,KOCZARGI STARE,52.26370426,20.79565384
3247,03,PRZY PARKU,52.27725139,20.8025796
3252,02,WOJCIESZYN,52.25640046,20.77127875
3255,01,WIERZBIN,52.25572109,20.74931955
3260,02,WYGLĘDY,52.25874082,20.7043165
3271,02,WARSZAWSKA,52.26052316,20.61538801
3274,01,LESZNO-GS,52.25934004,20.60241179
3276,01,WIDOCZNA,52.20297075,21.26874055
3287,02,PIASKOWA,52.1497303,21.35088224
3302,02,CH WÓLKA KOSOWSKA,52.05768146,20.85648185
3304,01,ORZECHOWA,52.054763,20.924684
3308,01,ŁANOWA,52.017676,20.884863
3312,02,BORZĘCIN DUŻY,52.25226283,20.73438773
3313,01,TRAKT KRÓLEWSKI,52.26125731,20.73567052
3326,02,P+R POŁCZYŃSKA,52.22165386,20.92238029
3334,02,MUZEUM ZIELONKI,52.30876614,21.15468926
3335,01,KS. SKORUPKI,52.40340924,20.92563629
3339,02,KOŚCIUSZKI,52.4107233,20.90681932
3341,01,PIUSA XI,52.41076668,20.90026271
3348,02,JASNA,52.1571,20.79326
3351,06,AL. WOJSKA POLSKIEGO,52.15961028,20.79859944
3357,02,RÓŻANA,52.284161,21.12049
3359,02,PUŁASKIEGO,52.28519196,21.13365561
3363,02,STOKROTKI,52.43684651,21.02196935
3371,03,KĄTY GRODZISKIE,52.32514924,21.06281726
3379,01,TYMOTKI,52.35645613,21.05295878
3381,04,SPORTOWA,52.253375,20.81589699
3383,14,ŻERAŃ FSO,52.29148485,21.00103041
3385,04,ZABRANIECKA,52.26137198,21.08860463
3386,01,11 LISTOPADA,52.26656267,21.03779666
3392,02,ZAJEZDNIA STALOWA,52.26363828,21.04820721
3395,02,CH MARKI,52.30502804,21.08524357
3400,09,TARCHOMIN,52.31724928,20.95277504
3401,02,ORZECHOWA,52.41710327,20.92332193
3408,12,WILANÓW,52.16740762,21.08480743
3423,02,WAWRZYSZEWSKA,52.246082,20.963084
3424,01,PKP KOŁO,52.24735229,20.95826545
3453,02,OS. ISKRA,52.22108853,21.09695402
